{"version": 0.6, "generator": "Overpass API 0.7.58.5 b0c4acbb", "osm3s": {"timestamp_osm_base": "2022-07-21T15:00:53Z", "copyright": "The data included in this document is from www.openstreetmap.org. The data is made available under ODbL."}, "elements": [{"type": "node", "id": 27180417, "lat": 53.9601046, "lon": -1.0755972, "tags": {"accommodation": "yes", "addr:city": "York", "addr:postcode": "YO1 7PR", "addr:street": "Peasholme Green", "amenity": "pub", "beer_garden": "yes", "fhrs:id": "245494", "floor:material": "stone", "food": "yes", "name": "The Black Swan", "outdoor_seating": "yes", "real_ale": "4 local beers inc Old Peculier", "website": "https://www.blackswanyork.com/", "wheelchair": "yes", "wheelchair:description": "Step free access"}}, {"type": "node", "id": 27182866, "lat": 53.9652004, "lon": -1.0661942, "tags": {"amenity": "recycling", "recycling:magazines": "yes", "recycling:newspaper": "yes", "recycling:paper": "yes", "recycling_type": "container"}}, {"type": "node", "id": 27212036, "lat": 53.9877288, "lon": -1.0683038}, {"type": "node", "id": 27231193, "lat": 53.9639065, "lon": -1.0788981, "tags": {"amenity": "recycling", "recycling:books": "yes", "recycling:cans": "yes", "recycling:clothes": "yes", "recycling:glass_bottles": "yes", "recycling:newspaper": "yes", "recycling:paper": "yes", "recycling:plastic_bottles": "yes", "recycling_type": "container"}}, {"type": "node", "id": 27237812, "lat": 53.9637558, "lon": -1.0768418, "tags": {"addr:city": "York", "addr:housenumber": "29", "addr:postcode": "YO31 7PB", "addr:street": "Monkgate", "amenity": "pub", "beer_garden": "yes", "fhrs:id": "244798", "floor:material": "rough wood", "food": "at least pies", "name": "Black Horse", "note": "Music on Saturdays", "note:opening_hours:covid19": "As of 23/5/2021", "old_name": "Tap and Spile", "opening_hours:covid19": "open", "operator": "Enterprise Inns", "parking": "yes", "real_ale": "5 beers", "source:addr": "FHRS Open Data", "wheelchair": "no", "wheelchair:description": "Steps at both front and back entrances"}}, {"type": "node", "id": 27237813, "lat": 53.9645521, "lon": -1.074505, "tags": {"addr:city": "York", "addr:housenumber": "84", "addr:postcode": "YO31 7PF", "addr:street": "Monkgate", "amenity": "pub", "floor:material": "carpet", "food": "yes", "name": "Brigadier Gerard", "operator": "Samuel Smiths", "outdoor_seating": "yes", "parking": "yes", "real_ale": "Sam Smiths Old Brewery Bitter", "source:food": "Big sign in window saying \"food\"", "wheelchair": "limited", "wheelchair:description": "step at entrance, then flat"}}, {"type": "node", "id": 27238041, "lat": 53.9605648, "lon": -1.0838954, "tags": {"addr:city": "York", "addr:housenumber": "7", "addr:postcode": "YO1 8AN", "addr:street": "Stonegate", "amenity": "pub", "floor:material": "rough_wood", "food": "yes", "name": "Punch Bowl", "note:opening_hours:covid19": "As of 6/6/2021", "opening_hours:covid19": "open", "operator": "Nicholson's", "real_ale": "Usual Nicholsons variety", "wheelchair": "limited"}}, {"type": "node", "id": 27238042, "lat": 53.9606097, "lon": -1.0803767, "tags": {"addr:city": "York", "addr:housenumber": "80", "addr:postcode": "YO1 7LF", "addr:street": "Goodramgate", "amenity": "pub", "fhrs:id": "245327", "floor:material": "rough_wood", "food": "yes", "loc_name": "Mucky Duck", "name": "The Old White Swan", "note:opening_hours:covid19": "As of 11/5/2021", "opening_hours:covid19": "restricted", "operator": "Nicholson's", "outdoor_seating": "yes", "real_ale": "5 beers, inc house beer", "source:addr": "FHRS Open Data", "toilets:wheelchair": "yes", "wheelchair": "yes"}}, {"type": "node", "id": 27238043, "lat": 53.9618554, "lon": -1.0798631, "tags": {"addr:city": "York", "addr:housenumber": "34", "addr:postcode": "YO1 7LF", "addr:street": "Goodramgate", "amenity": "pub", "cuisine": "pie", "fhrs:id": "244689", "food": "yes", "name": "The Cross Keys", "note:opening_hours:covid19": "As of 17/5/2021", "opening_hours:covid19": "open", "operator": "Nicholson's", "real_ale": "4 from Siren, Hobgoblin (may vary)", "source:addr": "FHRS Open Data", "wheelchair": "yes", "wheelchair:description": "Flat west entrance, flat patio doors from outside area."}}, {"type": "node", "id": 27238044, "lat": 53.9615009, "lon": -1.0797167, "tags": {"addr:city": "York", "addr:postcode": "YO1 7LS", "addr:street": "Goodramgate", "amenity": "pub", "floor:material": "wood", "name": "The Snickleway Inn", "note:opening_hours:covid19": "As of 23/5/2021", "opening_hours:covid19": "open", "outdoor_seating": "yes", "real_ale": "4 or 5 beers, presumably varying", "smoking": "outside", "takeaway": "yes", "wheelchair": "no"}}, {"type": "node", "id": 27238045, "lat": 53.9622163, "lon": -1.0791513, "tags": {"addr:city": "York", "addr:housenumber": "20", "addr:postcode": "YO1 7LG", "addr:street": "Goodramgate", "amenity": "pub", "fhrs:id": "246416", "name": "The Golden Slipper", "note:opening_hours:covid19": "As of 17/5/2021", "opening_hours:covid19": "open", "real_ale": "5 or so beers (3 appear regular, 2 vary)", "source:addr": "FHRS Open Data", "wheelchair": "no", "wheelchair:description": "Steps at entrance"}}, {"type": "node", "id": 27393853, "lat": 53.9541473, "lon": -1.0750907, "tags": {"addr:city": "York", "addr:housenumber": "75", "addr:postcode": "YO1 9PT", "addr:street": "George Street", "amenity": "pub", "camra": "yes", "fhrs:id": "245657", "floor:material": "rough_wood", "food": "pies", "internet_access": "wlan", "name": "The Phoenix", "note": "Jazz on a Wednesday, some music other nights", "outdoor_seating": "yes", "real_ale": "5 beers, including locals such as Wold Top", "real_fire": "yes", "source:addr": "FHRS Open Data", "wheelchair": "limited", "wheelchair:description": "Small step at entrance, then flat"}}, {"type": "node", "id": 27393889, "lat": 53.9571381, "lon": -1.0830899, "tags": {"addr:city": "York", "addr:housenumber": "3", "addr:postcode": "YO1 9SN", "addr:street": "King's Staith", "amenity": "pub", "description:floor": "stone", "fhrs:id": "246393", "name": "The Kings Arms", "note:opening_hours:covid19": "As of 6/6/2021", "opening_hours:covid19": "open", "operator": "Samuel Smiths", "outdoor_seating": "yes", "real_ale": "no", "source:addr": "FHRS Open Data", "wheelchair": "limited"}}, {"type": "node", "id": 27393891, "lat": 53.9566552, "lon": -1.082689, "tags": {"addr:city": "York", "addr:housenumber": "8", "addr:postcode": "YO1 9SW", "addr:street": "Cumberland Street", "amenity": "pub", "fhrs:id": "245999", "floor:material": "stone", "name": "The Lowther", "note:opening_hours:covid19": "As of 6/6/2021", "opening_hours:covid19": "open", "real_ale": "Theakstons Best, Sharps Doom Bar", "source:addr": "FHRS Open Data"}}, {"type": "node", "id": 27393903, "lat": 53.9567263, "lon": -1.082453, "tags": {"addr:city": "York", "addr:housenumber": "5", "addr:postcode": "YO1 9SW", "addr:street": "Cumberland Street", "amenity": "pub", "fhrs:id": "244797", "name": "Plonkers", "note:opening_hours:covid19": "As of 6/6/2021", "opening_hours:covid19": "open", "source:addr": "FHRS Open Data"}}, {"type": "node", "id": 27393945, "lat": 53.9599511, "lon": -1.0797168, "tags": {"addr:city": "York", "addr:housenumber": "27", "addr:postcode": "YO1 8BN", "addr:street": "Colliergate", "amenity": "pub", "brewery": "Black Sheep Brewery", "fhrs:id": "244599", "floor:material": "wood", "name": "The Last Drop Inn", "operator": "York Brewery", "real_ale": "4 of their beers, 2 guests", "source:addr": "FHRS Open Data", "wheelchair": "limited", "wheelchair:description": "Step free access to seating at front of pub, but steps up to main bar and everything else"}}, {"type": "node", "id": 27393951, "lat": 53.9587141, "lon": -1.0796882, "tags": {"addr:city": "York", "addr:housenumber": "16", "addr:postcode": "YO1 9UP", "addr:street": "Pavement", "amenity": "pub", "fhrs:id": "245755", "floor:material": "rough_wood", "food": "yes", "name": "The Golden Fleece", "note:opening_hours:covid19": "As of 6/6/2021", "note:operator": "Bermondsey Pub Company is owned by Enterprise Inns", "opening_hours:covid19": "open", "operator": "Bermondsey Pub Company", "real_ale": "Old Peculier, Leeds Pale, Doom Bar, Boltmaker", "source:addr": "FHRS Open Data", "wheelchair": "limited", "wheelchair:description": "Small step at entrance, narrow entrance", "wikidata": "Q5579404", "wikipedia": "en:Golden Fleece, York"}}, {"type": "node", "id": 27402368, "lat": 53.9555764, "lon": -1.0909872, "tags": {"addr:city": "York", "addr:country": "GB", "addr:housenumber": "5", "addr:postcode": "YO24 1AU", "addr:street": "Blossom Street", "amenity": "pub", "brand": "Wetherspoon", "brand:wikidata": "Q6109362", "brand:wikipedia": "en:Wetherspoons", "contact:website": "https://www.jdwetherspoon.com/pubs/all-pubs/england/north-yorkshire/the-punch-bowl-york", "fhrs:id": "245514", "food": "yes", "name": "The Punch Bowl", "note:opening_hours:covid19": "As of 17/5/2021", "opening_hours:covid19": "open", "real_ale": "Usual Wetherspoon's variety", "source:addr": "FHRS Open Data", "wheelchair": "no", "wheelchair:description": "Steps at both entrances"}}, {"type": "node", "id": 27422684, "lat": 53.9592771, "lon": -1.0880158, "tags": {"addr:city": "York", "addr:postcode": "YO1 6HU", "addr:street": "Tanner's Moat", "amenity": "pub", "fhrs:id": "245667", "floor:material": "tiles", "name": "The Maltings", "note:opening_hours:covid19": "As of 25/5/2021", "opening_hours:covid19": "open", "real_ale": "5 or so including from local breweries", "source:addr": "FHRS Open Data", "swearing": "no", "wheelchair": "no"}}, {"type": "node", "id": 27422747, "lat": 53.9622191, "lon": -1.0843006, "tags": {"addr:city": "York", "addr:postcode": "YO1 7EN", "addr:street": "High Petergate", "amenity": "pub", "floor:material": "rough_wood", "name": "The Three Legged Mare", "note:opening_hours:covid19": "As of 23/5/2021", "opening_hours:covid19": "open", "operator": "Black Sheep Brewery", "real_ale": "3 from York, 2 from Black Sheep, 4 or 5 others", "real_cider": "Several boxes on the shelf", "wheelchair": "limited", "wheelchair:description": "One step at entrance, then flat.  Smaller step at back entrance.  Wheelchair toilets on flat at back of pub."}}, {"type": "node", "id": 27422749, "lat": 53.9624357, "lon": -1.0847018, "tags": {"addr:city": "York", "addr:housenumber": "9", "addr:postcode": "YO1 7EN", "addr:street": "High Petergate", "amenity": "pub", "floor:material": "rough_wood", "food": "yes", "name": "Eagle & Child", "note:opening_hours:covid19": "As of 6/6/2021", "opening_hours:covid19": "open", "operator": "Leeds Brewery", "outdoor_seating": "yes", "real_ale": "4 from Leeds, a couple of others", "wheelchair": "limited", "wheelchair:description": "Slight lip on front door, then flat"}}, {"type": "node", "id": 27422751, "lat": 53.9625609, "lon": -1.0846506, "tags": {"addr:city": "York", "addr:postcode": "YO1 7EH", "addr:street": "High Petergate", "amenity": "pub", "floor:material": "carpet", "food": "yes", "name": "The Hole In The Wall", "note:opening_hours:covid19": "As of 23/5/2021", "opening_hours:covid19": "open", "operator": "Marstons", "real_ale": "3 from Marston's, 2 from Rudgate", "wheelchair": "no", "wheelchair:description": "Large step at entrance.  Doesn't appear to be access from passageway to west"}}, {"type": "node", "id": 27497659, "lat": 53.9581764, "lon": -1.0856708, "tags": {"addr:city": "York", "addr:housenumber": "15", "addr:postcode": "YO1 6JD", "addr:street": "North Street", "amenity": "pub", "fhrs:id": "244717", "internet_access": "wlan", "name": "The Whippet Inn", "note:opening_hours:covid19": "As of 22/4/2021", "opening_hours:covid19": "open", "outdoor_seating": "yes", "real_ale": "4 beers", "smoking": "isolated", "source:addr": "FHRS Open Data", "wheelchair": "no", "wheelchair:description": "Step at entrance, several steps up to get into main bar"}}, {"type": "node", "id": 27497662, "lat": 53.9585536, "lon": -1.086833, "tags": {"addr:city": "York", "addr:housenumber": "17", "addr:postcode": "YO1 6JB", "addr:street": "Tanner Row", "amenity": "pub", "fhrs:id": "244725", "floor:material": "rough_wood", "name": "The Corner Pin", "note:opening_hours:covid19": "As of 22/4/2021", "opening_hours:covid19": "open", "operator": "Marstons", "real_ale": "At least one from Marston's", "source:addr": "FHRS Open Data", "wheelchair": "limited", "wheelchair:description": "Steps at main entrance, no steps at access from patio, but step from there to main bar"}}, {"type": "node", "id": 27497664, "lat": 53.9583719, "lon": -1.0875894, "tags": {"amenity": "toilets", "fee": "yes"}}, {"type": "node", "id": 27497676, "lat": 53.9566837, "lon": -1.0871262, "tags": {"addr:city": "York", "addr:housenumber": "9", "addr:postcode": "YO1 6LN", "addr:street": "Saint Martin's Lane", "amenity": "pub", "bar_billiards": "yes", "fhrs:id": "245010", "floor:material": "rough_wood", "name": "The Ackhorne", "outdoor_seating": "yes", "real_ale": "5 or so beers", "source:addr": "FHRS Open Data", "wheelchair": "limited", "wheelchair:description": "Flat at entrance, flat throughout (apart from one small raised area, and access to toilets)"}}, {"type": "node", "id": 27497679, "lat": 53.9563882, "lon": -1.0900058, "tags": {"addr:city": "York", "addr:housenumber": "103", "addr:postcode": "YO1 6LB", "addr:street": "Micklegate", "amenity": "pub", "fhrs:id": "244765", "food": "yes", "name": "The Priory", "note:opening_hours:covid19": "As of 17/5/2021", "opening_hours:covid19": "open", "operator": "Wear Inns", "outdoor_seating": "yes", "real_ale": "2-4 beers", "wheelchair": "no", "wheelchair:description": "Largeish step at entrance"}}, {"type": "node", "id": 27497680, "lat": 53.9560506, "lon": -1.0905166, "tags": {"addr:city": "York", "addr:housenumber": "127", "addr:postcode": "YO1 6LB", "addr:street": "Micklegate", "amenity": "pub", "bt_sport": "yes", "floor:material": "carpet", "name": "Micklegate 127", "note:opening_hours:covid19": "As of 6/6/2021", "opening_hours:covid19": "open", "real_ale": "1-5, mostly from Marston's", "wheelchair": "no", "wheelchair:description": "apart from the big step to get in, looks mostly flat, toilets on same level"}}, {"type": "node", "id": 27497682, "lat": 53.9568267, "lon": -1.0896372, "tags": {"addr:city": "York", "addr:housenumber": "100", "addr:postcode": "YO1 6JX", "addr:street": "Micklegate", "amenity": "pub", "fhrs:id": "245067", "floor:material": "carpet", "name": "The Nags Head", "note:opening_hours:covid19": "As of 17/5/2021", "opening_hours:covid19": "open", "operator": "Craft Union", "outdoor_seating": "yes", "real_ale": "2 beers, may vary", "smoking": "outside", "source:addr": "FHRS Open Data", "wheelchair": "limited", "wheelchair:description": "Small step at entrance, but fairly narrow.  Step at back entrance, steps to toilets, no steps from road to beer garden."}}, {"type": "node", "id": 27497686, "lat": 53.9572658, "lon": -1.0876195, "tags": {"addr:city": "York", "addr:housenumber": "47", "addr:postcode": "YO1 6LJ", "addr:street": "Micklegate", "amenity": "pub", "fhrs:id": "245894", "floor:material": "rough_wood", "name": "The Artful Dodger", "pinball": "yes", "real_ale": "3 beers from small breweries, may vary", "source:addr": "FHRS Open Data", "wheelchair": "no", "wheelchair:description": "Steps at both entrances, steps throughout"}}, {"type": "node", "id": 27497691, "lat": 53.9548631, "lon": -1.0850112, "tags": {"addr:city": "York", "addr:housenumber": "2", "addr:postcode": "YO1 6DU", "addr:street": "Cromwell Road", "amenity": "pub", "beer_garden": "yes", "description:floor": "tiles", "fhrs:id": "244977", "food": "Basket of bread by the bar", "name": "The Golden Ball", "note:opening_hours:covid19": "As of 22/4/2021", "opening_hours:covid19": "open", "real_ale": "4 or more beers", "source:addr": "FHRS Open Data", "website": "https://www.goldenballyork.co.uk/", "wheelchair": "limited"}}, {"type": "node", "id": 27497692, "lat": 53.9563383, "lon": -1.0737834, "tags": {"addr:city": "York", "addr:housenumber": "98", "addr:postcode": "YO1 9TL", "addr:street": "Walmgate", "amenity": "restaurant", "cuisine": "yemeni", "disused:amenity": "pub", "name": "Yemen Heaven", "old_name": "The Spread Eagle", "wheelchair": "no", "wheelchair:description": "Step at entrance, but may be access to beer garden from northeast in Summer."}}, {"type": "node", "id": 27497693, "lat": 53.9571354, "lon": -1.0769754, "tags": {"addr:city": "York", "addr:housenumber": "25", "addr:postcode": "YO1 9TX", "addr:street": "Walmgate", "amenity": "pub", "description:floor": "Rough wood", "fhrs:id": "244910", "flood_prone": "yes", "food": "yes", "internet_access": "wlan", "level": "0", "name": "Walmgate Ale House", "note:opening_hours:covid19": "As of 8/5/2021", "old_name": "Melton's Too", "opening_hours:covid19": "open", "real_ale": "6 local beers", "source:addr": "FHRS Open Data", "source:flood_prone": "Dated lines on wall", "wheelchair": "limited", "wheelchair:description": "No step at entrance, flat downstairs, steps to restaurant upstairs"}}, {"type": "node", "id": 27497694, "lat": 53.9573256, "lon": -1.07698, "tags": {"addr:city": "York", "addr:housenumber": "24", "addr:postcode": "YO1 9TJ", "addr:street": "Walmgate", "amenity": "pub", "floor:material": "rough_wood", "name": "Watergate Inn", "note": "The Watergate Inn changed its name briefly in 2019 to Polish Vodka Bar but it has now changed back. Menus still in English and Polish. Restaurant (Yemeni) and shisha bar to open", "note:opening_hours:covid19": "As of 23/5/2021", "old_name": "Polish Vodka Bar", "opening_hours:covid19": "open", "operator": "Enterprise Inns", "real_ale": "no", "tourism": "hotel", "website": "https://www.thewatergateinn.co.uk/", "wheelchair": "limited", "wheelchair:description": "Very small step at entrance. Access to rooms involves steps."}}, {"type": "node", "id": 27497695, "lat": 53.9571962, "lon": -1.077776, "tags": {"addr:city": "York", "addr:housenumber": "2", "addr:postcode": "YO1 9TU", "addr:street": "Merchantgate", "amenity": "pub", "fhrs:id": "245428", "floor:material": "lino", "food": "yes", "name": "The Red Lion", "note:opening_hours:covid19": "As of 23/5/2021", "opening_hours:covid19": "open", "operator": "Enterprise Inns", "real_ale": "4 or so beers, usually including Rudgate", "source:addr": "FHRS Open Data", "wheelchair": "no", "wheelchair:description": "Step down to get into pub, steps inside pub and step up to beer garden"}}, {"type": "node", "id": 27497696, "lat": 53.9586988, "lon": -1.079114, "tags": {"addr:city": "York", "addr:housenumber": "53", "addr:postcode": "YO1 9TF", "addr:street": "Fossgate", "amenity": "pub", "camra": "yes", "fhrs:id": "245167", "fixme": "Have updated opening hours to reflect those advertised on new website. Can someone local confirm?", "floor:material": "lino", "food": "pies", "internet_access": "no", "name": "The Blue Bell", "opening_hours": "Mo-Su 12:00-23:00", "operator": "Punch Taverns", "outdoor_seating": "yes", "outdoor_seating:description": "On pavement when road is closed to traffic during the day", "payment:credit_cards": "yes", "payment:debit_cards": "yes", "phone": "+44 1904 654904", "real_ale": "7 or so beers", "swearing": "no", "website": "https://bluebellyork.com/", "wheelchair": "no", "wheelchair:description": "Small step at entrance, narrow doorways"}}, {"type": "node", "id": 28451887, "lat": 53.9653219, "lon": -0.9802938, "tags": {"addr:city": "Dunnington", "addr:postcode": "YO19 5PW", "addr:street": "Church Street", "amenity": "library", "name": "Dunnington Community Library"}}, {"type": "node", "id": 52026029, "lat": 53.9502073, "lon": -1.0589006}, {"type": "node", "id": 52026031, "lat": 53.9497293, "lon": -1.0577302}, {"type": "node", "id": 52026032, "lat": 53.9495947, "lon": -1.0555974}, {"type": "node", "id": 67622062, "lat": 53.9485256, "lon": -1.0514134}, {"type": "node", "id": 67622065, "lat": 53.9481174, "lon": -1.049973}, {"type": "node", "id": 67622069, "lat": 53.9475428, "lon": -1.0480184}, {"type": "node", "id": 67622071, "lat": 53.9475059, "lon": -1.0475213}, {"type": "node", "id": 86057952, "lat": 53.9504795, "lon": -1.0591779}, {"type": "node", "id": 86057953, "lat": 53.9498755, "lon": -1.0582988}, {"type": "node", "id": 101481728, "lat": 53.9496483, "lon": -1.0442181}, {"type": "node", "id": 124443719, "lat": 53.9897148, "lon": -1.0477907}, {"type": "node", "id": 128768491, "lat": 53.8964389, "lon": -0.9640697, "tags": {"addr:city": "Wheldrake", "addr:housenumber": "73", "addr:postcode": "YO19 6AA", "addr:street": "Main Street", "amenity": "pub", "fhrs:id": "244935", "floor:material": "stone", "food": "yes", "name": "Wenlock Arms", "outdoor_seating": "yes", "parking": "yes", "real_ale": "Bombardier, Black Sheep Bitter, Farmer's Blonde (may vary)", "source:addr": "FHRS Open Data"}}, {"type": "node", "id": 130160146, "lat": 53.9562049, "lon": -0.9950814, "tags": {"addr:postcode": "YO19 5LF", "amenity": "restaurant", "cuisine": "fish_and_chips", "name": "The Scrap Box", "note": "confirmed August 28, 2019", "opening_hours": "Mo-Su 11:00-20:00", "phone": "+44 1904 489392", "website": "https://www.thescrapbox.fish/"}}, {"type": "node", "id": 148059340, "lat": 53.9484777, "lon": -1.0598328}, {"type": "node", "id": 148059341, "lat": 53.9455245, "lon": -1.0597932}, {"type": "node", "id": 148062177, "lat": 53.9499801, "lon": -1.044571}, {"type": "node", "id": 148062178, "lat": 53.9510759, "lon": -1.0450259}, {"type": "node", "id": 186036674, "lat": 53.9803276, "lon": -1.133108, "tags": {"addr:city": "York", "addr:postcode": "YO26 6RL", "addr:street": "White Rose Close", "amenity": "restaurant", "cuisine": "steak_house", "name": "Millfield Beefeater", "opening_hours:covid19": "open"}}, {"type": "node", "id": 186038071, "lat": 53.9796726, "lon": -1.1331985}, {"type": "node", "id": 186038075, "lat": 53.9796413, "lon": -1.1336073}, {"type": "node", "id": 186038106, "lat": 53.9797146, "lon": -1.1336235}, {"type": "node", "id": 186038118, "lat": 53.9798785, "lon": -1.1336598}, {"type": "node", "id": 186038171, "lat": 53.9799098, "lon": -1.1332509}, {"type": "node", "id": 186038194, "lat": 53.9803413, "lon": -1.1341235}, {"type": "node", "id": 186038279, "lat": 53.9803901, "lon": -1.1340461}, {"type": "node", "id": 186038290, "lat": 53.9802257, "lon": -1.133747}, {"type": "node", "id": 186038404, "lat": 53.9801431, "lon": -1.1338785}, {"type": "node", "id": 186038484, "lat": 53.980174, "lon": -1.1339347}, {"type": "node", "id": 186038661, "lat": 53.9801106, "lon": -1.1340354}, {"type": "node", "id": 186038705, "lat": 53.9801935, "lon": -1.1342343}, {"type": "node", "id": 186038717, "lat": 53.9802221, "lon": -1.1341895}, {"type": "node", "id": 186038725, "lat": 53.9802575, "lon": -1.1342548}, {"type": "node", "id": 186038737, "lat": 53.9801468, "lon": -1.1341481}, {"type": "node", "id": 246525346, "lat": 53.9598269, "lon": -1.0833234, "tags": {"amenity": "bicycle_parking", "bicycle_parking": "stands", "capacity": "22", "covered": "no", "name": "Davygate South"}}, {"type": "node", "id": 246525347, "lat": 53.9601518, "lon": -1.0839173, "tags": {"amenity": "bicycle_parking", "bicycle_parking": "stands", "capacity": "28", "covered": "no", "name": "Davygate (North)"}}, {"type": "node", "id": 246525348, "lat": 53.9612433, "lon": -1.084815, "tags": {"amenity": "bicycle_parking", "bicycle_parking": "stands", "capacity": "28", "covered": "no", "name": "Blake Street"}}, {"type": "node", "id": 246525349, "lat": 53.9603837, "lon": -1.0857785, "tags": {"addr:city": "York", "addr:housenumber": "6-12", "addr:postcode": "YO1 8AA", "addr:street": "Lendal", "amenity": "pub", "diet:vegan": "yes", "fhrs:id": "246073", "floor:material": "wood", "food": "yes", "name": "Old Bank", "note:opening_hours:covid19": "As of 22/4/2021", "old_name": "The Graduate", "opening_hours:covid19": "open", "operator": "Stonegate Pub Company", "real_ale": "3 beers", "sky": "yes", "source:addr": "FHRS Open Data", "wheelchair": "yes", "wheelchair:description": "Step at main entrance, but ramp to right-hand side"}}, {"type": "node", "id": 246525350, "lat": 53.9605982, "lon": -1.0853929, "tags": {"accommodation": "yes", "addr:city": "York", "addr:housenumber": "9", "addr:postcode": "YO1 8AQ", "addr:street": "Lendal", "amenity": "pub", "fhrs:id": "246070", "floor:material": "stone", "level": "0", "name": "Judges Lodging", "note:opening_hours:covid19": "As of 22/4/2021", "opening_hours:covid19": "open", "operator": "Thwaites", "outdoor_seating": "yes", "real_ale": "At least 6 (4 Thwaites, 2 guests), maybe more", "source:addr": "FHRS Open Data", "wheelchair": "yes", "wheelchair:description": "Flat throughout. Door to patio is touch to open"}}, {"type": "node", "id": 246525501, "lat": 53.9599579, "lon": -1.0852309, "tags": {"addr:city": "York", "addr:housenumber": "26", "addr:postcode": "YO1 8AA", "addr:street": "Lendal", "amenity": "pub", "fhrs:id": "730194", "floor:material": "rough_wood", "food": "yes", "name": "Lendal Cellars", "operator": "Greene King", "real_ale": "3 from Greene King", "source:addr": "FHRS Open Data", "takeaway": "no", "wheelchair": "no"}}, {"type": "node", "id": 247289309, "lat": 53.9958191, "lon": -1.0765342}, {"type": "node", "id": 247289339, "lat": 53.9512698, "lon": -1.0555789}, {"type": "node", "id": 247289772, "lat": 53.952514, "lon": -1.0723344, "tags": {"accommodation": "yes", "addr:city": "York", "addr:housenumber": "1", "addr:postcode": "YO10 5AR", "addr:street": "Heslington Road", "amenity": "pub", "fhrs:id": "245430", "floor:material": "carpet", "name": "The Victoria Hotel", "note:opening_hours:covid19": "As of 6/6/2021", "opening_hours:covid19": "open", "operator": "Old Mill Brewery", "outdoor_seating": "yes", "real_ale": "3 from Old Mill", "real_fire": "yes", "source:addr": "FHRS Open Data", "wheelchair": "limited", "wheelchair:description": "Very small step at entrance"}}, {"type": "node", "id": 256568339, "lat": 53.9560675, "lon": -1.0736373, "tags": {"amenity": "atm", "check_date": "2021-08-31", "currency:GBP": "yes", "fee": "no", "network": "link", "operator": "Tesco"}}, {"type": "node", "id": 257893930, "lat": 53.98747, "lon": -1.0301467}, {"type": "node", "id": 257894096, "lat": 53.9599997, "lon": -1.0366897, "tags": {"addr:city": "York", "addr:housenumber": "39", "addr:postcode": "YO10 3NP", "addr:street": "Osbaldwick Village", "addr:suburb": "Osbaldwick", "amenity": "pub", "fhrs:id": "245437", "food": "yes", "name": "Derwent Arms", "outdoor_seating": "yes", "parking": "yes", "real_ale": "3 or 4 beers", "source:addr": "FHRS Open Data"}}, {"type": "node", "id": 257894097, "lat": 53.9599709, "lon": -1.0370654, "tags": {"amenity": "recycling", "recycling_type": "container"}}, {"type": "node", "id": 258056002, "lat": 53.966874, "lon": -1.0612037, "tags": {"accommodation": "yes", "addr:city": "York", "addr:housenumber": "56", "addr:postcode": "YO31 0AD", "addr:street": "Heworth Road", "amenity": "pub", "fhrs:id": "245692", "floor:material": "carpet", "food": "yes", "name": "The Nag's Head", "note:opening_hours:covid19": "As of 4/7/2021", "opening_hours:covid19": "open", "operator": "Enterprise Inns", "parking": "yes", "real_ale": "3 beers, may vary", "source:addr": "FHRS Open Data", "wheelchair": "limited", "wheelchair:description": "Small step at front and back entrances, further step up to an internal area"}}, {"type": "node", "id": 259030151, "lat": 53.9550236, "lon": -1.0695636, "tags": {"accommodation": "yes", "addr:city": "York", "addr:housenumber": "13", "addr:postcode": "YO10 3BP", "addr:street": "Lawrence Street", "amenity": "pub", "fhrs:id": "245301", "name": "The Rose and Crown", "note:opening_hours:covid19": "As of 8/5/2021", "opening_hours:covid19": "open", "operator": "Punch Taverns", "real_ale": "Timothy Taylor Landlord + a couple of others", "website": "https://roseandcrownyork.com/", "wheelchair": "yes"}}, {"type": "node", "id": 259037323, "lat": 53.953948, "lon": -1.0557274, "tags": {"addr:city": "York", "addr:housenumber": "55", "addr:postcode": "YO10 3JP", "addr:street": "Hull Road", "amenity": "pub", "fhrs:id": "245787", "floor:material": "tiles", "name": "Beeswing Ale House", "note": "House beer, pump clip turned round", "old_name": "The Beeswing", "operator": "Enterprise Inns", "real_ale": "no", "source:addr": "FHRS Open Data", "wheelchair": "yes", "wheelchair:description": "Flat entrance"}}, {"type": "node", "id": 259040695, "lat": 53.9590584, "lon": -1.0497672, "tags": {"amenity": "atm", "cash_in": "no", "fee": "no", "name": "The Cooperative Bank"}}, {"type": "node", "id": 259178372, "lat": 53.9539012, "lon": -1.0288497, "tags": {"amenity": "recycling", "recycling:cans": "yes", "recycling:clothes": "yes", "recycling:glass": "yes", "recycling:paper": "yes", "recycling:plastic_bottles": "yes", "recycling_type": "container"}}, {"type": "node", "id": 259422052, "lat": 53.9595233, "lon": -1.0813737, "tags": {"amenity": "toilets", "fee": "yes", "female": "yes", "male": "yes", "name": "Silver Street Toilets", "opening_hours": "Mo-Sa 7:00-19:00; Su 8:00-19:00", "operator": "City of York Council", "supervised": "yes", "toilets:disposal": "flush", "wheelchair": "yes"}}, {"type": "node", "id": 259658937, "lat": 53.9758668, "lon": -1.1016169}, {"type": "node", "id": 262644521, "lat": 53.9659695, "lon": -1.0846753}, {"type": "node", "id": 262644543, "lat": 53.9795219, "lon": -1.1070067, "tags": {"addr:city": "York", "addr:country": "GB", "addr:housenumber": "20", "addr:postcode": "YO30 5SW", "addr:street": "Eastholme Drive", "addr:village": "Rawcliffe", "amenity": "post_office", "name": "Eastholme Drive Post Office", "opening_hours": "Mo-Sa 07:00-21:00; Su 08:00-21:00", "ref:pol_id": "5217"}}, {"type": "node", "id": 262651568, "lat": 53.9915573, "lon": -1.1039803, "tags": {"amenity": "atm", "check_date": "2022-06-24", "fee": "no", "name": "Tesco", "note": "they are outside but under shelter of protected roof", "note:quantity": "there are 4 atms", "operator": "RBS"}}, {"type": "node", "id": 262804138, "lat": 53.9783802, "lon": -1.112716}, {"type": "node", "id": 262804142, "lat": 53.9788381, "lon": -1.1130007, "tags": {"created_by": "JOSM"}}, {"type": "node", "id": 262804144, "lat": 53.9787914, "lon": -1.1132287}, {"type": "node", "id": 262804150, "lat": 53.9783208, "lon": -1.1138483}, {"type": "node", "id": 262804155, "lat": 53.9784585, "lon": -1.1139471}, {"type": "node", "id": 262806873, "lat": 53.97741, "lon": -1.1150092}, {"type": "node", "id": 262807813, "lat": 53.9888887, "lon": -1.1122799, "tags": {"addr:city": "York", "addr:postcode": "YO30 5TZ", "addr:street": "Manor Lane", "addr:suburb": "Rawcliffe", "amenity": "pub", "beer_garden": "yes", "contact:facebook": "https://www.facebook.com/lysanderarms.co.uk/", "email": "enquiries@lysanderarms.co.uk", "food": "yes", "name": "Lysander Arms", "parking": "yes", "phone": "+44 1904 640845", "real_ale": "2 beers", "website": "http://www.lysanderarms.co.uk/", "wheelchair": "yes", "wheelchair:description": "Ramp at entrance, then flat"}}, {"type": "node", "id": 262974191, "lat": 53.9501417, "lon": -1.0447106}, {"type": "node", "id": 262974202, "lat": 53.9500068, "lon": -1.0484243}, {"type": "node", "id": 262974203, "lat": 53.9493786, "lon": -1.0483957, "tags": {"created_by": "JOSM"}}, {"type": "node", "id": 262974204, "lat": 53.9502494, "lon": -1.0484852}, {"type": "node", "id": 262974205, "lat": 53.9506494, "lon": -1.0486682}, {"type": "node", "id": 262974207, "lat": 53.950963, "lon": -1.0489295}, {"type": "node", "id": 262974208, "lat": 53.951196, "lon": -1.0495238}, {"type": "node", "id": 262974209, "lat": 53.9512407, "lon": -1.0499634}, {"type": "node", "id": 262974210, "lat": 53.9511832, "lon": -1.0504518}, {"type": "node", "id": 262974211, "lat": 53.9510022, "lon": -1.0509306}, {"type": "node", "id": 262974212, "lat": 53.9509314, "lon": -1.0511052}, {"type": "node", "id": 262974213, "lat": 53.9507968, "lon": -1.0517172}, {"type": "node", "id": 262974214, "lat": 53.9506348, "lon": -1.0521522}, {"type": "node", "id": 262974215, "lat": 53.9499751, "lon": -1.0535504}, {"type": "node", "id": 262974345, "lat": 53.9448626, "lon": -1.0447858, "tags": {"addr:city": "York", "addr:country": "GB", "addr:housenumber": "13", "addr:postcode": "YO10 5EA", "addr:street": "Main Street", "addr:village": "Heslington", "amenity": "post_office", "brand": "Post Office", "check_date:opening_hours": "2022-06-02", "fhrs:id": "244982", "name": "Heslington Post Office", "opening_hours": "Mo-Fr 08:45-17:30; Sa 08:45-13:00", "ref:pol_id": "6938", "source:addr": "FHRS Open Data"}}, {"type": "node", "id": 262974360, "lat": 53.9446158, "lon": -1.0483209}, {"type": "node", "id": 262974370, "lat": 53.9452667, "lon": -1.0476184}, {"type": "node", "id": 262974371, "lat": 53.9450104, "lon": -1.0486705}, {"type": "node", "id": 262974373, "lat": 53.9448721, "lon": -1.0491166}, {"type": "node", "id": 262974379, "lat": 53.9436092, "lon": -1.0517407}, {"type": "node", "id": 262974384, "lat": 53.943294, "lon": -1.0514501}, {"type": "node", "id": 262974386, "lat": 53.9429205, "lon": -1.0508166}, {"type": "node", "id": 262974390, "lat": 53.9424282, "lon": -1.0503249}, {"type": "node", "id": 262976481, "lat": 53.9496575, "lon": -1.056697}, {"type": "node", "id": 262976483, "lat": 53.949656, "lon": -1.0570215}, {"type": "node", "id": 262976485, "lat": 53.9497383, "lon": -1.0568307}, {"type": "node", "id": 262976487, "lat": 53.9496863, "lon": -1.0567124}, {"type": "node", "id": 262976488, "lat": 53.9495721, "lon": -1.0567485}, {"type": "node", "id": 262976489, "lat": 53.9495469, "lon": -1.0568577}, {"type": "node", "id": 262976490, "lat": 53.9495764, "lon": -1.0569771}, {"type": "node", "id": 262976493, "lat": 53.949938, "lon": -1.0566832}, {"type": "node", "id": 262976494, "lat": 53.9500788, "lon": -1.0563984}, {"type": "node", "id": 262976496, "lat": 53.950148, "lon": -1.0556221}, {"type": "node", "id": 262976498, "lat": 53.9501181, "lon": -1.0554145}, {"type": "node", "id": 262976504, "lat": 53.9485419, "lon": -1.0573772}, {"type": "node", "id": 262976506, "lat": 53.9485568, "lon": -1.0582947}, {"type": "node", "id": 262976508, "lat": 53.9485437, "lon": -1.058996}, {"type": "node", "id": 262976509, "lat": 53.9485031, "lon": -1.0592123}, {"type": "node", "id": 262976510, "lat": 53.9484056, "lon": -1.0593819}, {"type": "node", "id": 262976511, "lat": 53.9474933, "lon": -1.0595466, "tags": {"crossing": "uncontrolled", "crossing:island": "no", "highway": "crossing", "tactile_paving": "yes", "traffic_calming": "hump"}}, {"type": "node", "id": 262976512, "lat": 53.9473394, "lon": -1.0596016}, {"type": "node", "id": 262976513, "lat": 53.9469668, "lon": -1.0595654}, {"type": "node", "id": 262976515, "lat": 53.9467434, "lon": -1.0595055}, {"type": "node", "id": 262976523, "lat": 53.9504107, "lon": -1.0593323}, {"type": "node", "id": 262976524, "lat": 53.9499843, "lon": -1.0594749}, {"type": "node", "id": 262976526, "lat": 53.9499113, "lon": -1.0593146}, {"type": "node", "id": 262976529, "lat": 53.9483403, "lon": -1.0507658}, {"type": "node", "id": 262976531, "lat": 53.9479282, "lon": -1.0511218, "tags": {"crossing": "marked", "highway": "crossing", "tactile_paving": "yes"}}, {"type": "node", "id": 262976535, "lat": 53.9499327, "lon": -1.0545176, "tags": {"created_by": "JOSM"}}, {"type": "node", "id": 262976537, "lat": 53.9498923, "lon": -1.0542149}, {"type": "node", "id": 262976550, "lat": 53.9479068, "lon": -1.0470296}, {"type": "node", "id": 262976551, "lat": 53.9486565, "lon": -1.0468904}, {"type": "node", "id": 262976578, "lat": 53.9489323, "lon": -1.0484117}, {"type": "node", "id": 262991825, "lat": 53.944266, "lon": -1.0597783}, {"type": "node", "id": 262991826, "lat": 53.94728, "lon": -1.043279}, {"type": "node", "id": 262991827, "lat": 53.9419426, "lon": -1.0574395}, {"type": "node", "id": 262991828, "lat": 53.9436123, "lon": -1.051655}, {"type": "node", "id": 262991829, "lat": 53.9444765, "lon": -1.051436}, {"type": "node", "id": 262991830, "lat": 53.9454229, "lon": -1.0522369}, {"type": "node", "id": 262991831, "lat": 53.9454762, "lon": -1.0514373}, {"type": "node", "id": 262991832, "lat": 53.9453952, "lon": -1.049596}, {"type": "node", "id": 262991833, "lat": 53.9449291, "lon": -1.0491584}, {"type": "node", "id": 262991834, "lat": 53.9450233, "lon": -1.048669}, {"type": "node", "id": 262991835, "lat": 53.945339, "lon": -1.047605}, {"type": "node", "id": 262991836, "lat": 53.9457641, "lon": -1.0460088}, {"type": "node", "id": 262991837, "lat": 53.946089, "lon": -1.0453666}, {"type": "node", "id": 262991838, "lat": 53.9465184, "lon": -1.04464}, {"type": "node", "id": 262991839, "lat": 53.9476741, "lon": -1.0441196}, {"type": "node", "id": 262991840, "lat": 53.9470363, "lon": -1.0439078}, {"type": "node", "id": 263710580, "lat": 53.9842992, "lon": -1.1241858, "tags": {"amenity": "recycling", "recycling:cans": "yes", "recycling:clothes": "yes", "recycling:glass_bottles": "yes", "recycling:magazines": "yes", "recycling:newspaper": "yes", "recycling:paper": "yes", "recycling:plastic_bottles": "yes", "recycling_type": "container"}}, {"type": "node", "id": 264098395, "lat": 53.9530203, "lon": -1.0759234, "tags": {"addr:city": "York", "addr:housenumber": "25", "addr:postcode": "YO10 4AE", "addr:street": "Fishergate", "amenity": "pub", "fhrs:id": "245422", "food": "sandwiches", "name": "The Edinburgh Arms", "note:opening_hours:covid19": "As of 6/6/2021", "opening_hours:covid19": "open", "real_ale": "Doom Bar", "source:addr": "FHRS Open Data"}}, {"type": "node", "id": 264106352, "lat": 53.9424966, "lon": -1.0577372}, {"type": "node", "id": 264106353, "lat": 53.9423335, "lon": -1.057634}, {"type": "node", "id": 264106354, "lat": 53.9419617, "lon": -1.0570892}, {"type": "node", "id": 264106400, "lat": 53.9411055, "lon": -1.0699265, "tags": {"amenity": "recycling", "recycling_type": "container"}}, {"type": "node", "id": 264109881, "lat": 53.9501495, "lon": -1.0755025, "tags": {"accommodation": "yes", "addr:city": "York", "addr:housenumber": "124", "addr:postcode": "YO10 4BE", "addr:street": "Fulford Road", "amenity": "pub", "fhrs:id": "244794", "floor:material": "wood", "name": "The Lighthorseman", "note:opening_hours:covid19": "As of 6/6/2021", "opening_hours:covid19": "open", "operator": "Thwaites", "real_ale": "1-4 beers (1 Thwaites, other localish ones)", "sky": "yes", "wheelchair": "no", "wheelchair:description": "Steps at each entrance"}}, {"type": "node", "id": 269983938, "lat": 53.9603532, "lon": -1.0704241, "tags": {"amenity": "atm", "cash_in": "no", "currency:GBP": "yes", "fee": "no", "language:en": "yes", "network": "link", "operator": "Lloyds Bank plc"}}, {"type": "node", "id": 276097174, "lat": 53.9318234, "lon": -1.1154434, "tags": {"amenity": "atm", "indoor": "no", "note": "there are three atms here", "operator": "RBS"}}, {"type": "node", "id": 280063388, "lat": 53.943137, "lon": -1.0532928}, {"type": "node", "id": 280063395, "lat": 53.9455577, "lon": -1.0499673}, {"type": "node", "id": 280063396, "lat": 53.9459663, "lon": -1.0504112}, {"type": "node", "id": 280063397, "lat": 53.9474054, "lon": -1.0518888}, {"type": "node", "id": 280063398, "lat": 53.9480906, "lon": -1.051905, "tags": {"crossing": "unmarked", "highway": "crossing", "tactile_paving": "yes", "traffic_calming": "hump"}}, {"type": "node", "id": 280494581, "lat": 54.0160516, "lon": -1.0760051, "tags": {"amenity": "toilets", "check_date": "2022-06-25", "fee": "no"}}, {"type": "node", "id": 280741522, "lat": 54.0161063, "lon": -1.0739271, "tags": {"amenity": "recycling", "recycling:clothes": "yes", "recycling_type": "container"}}, {"type": "node", "id": 280741530, "lat": 54.0188893, "lon": -1.0811077, "tags": {"addr:city": "York", "addr:housenumber": "115", "addr:postcode": "YO32 2JH", "addr:street": "The Village", "addr:village": "Haxby", "amenity": "pub", "fhrs:id": "245449", "food": "yes", "name": "The Cottage Inn", "note": "Cottage Inn open again", "outdoor_seating": "yes", "parking": "yes", "source:addr": "FHRS Open Data"}}, {"type": "node", "id": 280751121, "lat": 54.0194477, "lon": -1.0861358, "tags": {"addr:city": "Wigginton", "addr:postcode": "YO32 2PJ", "addr:street": "The Village", "amenity": "pub", "beer_garden": "yes", "food": "yes", "name": "The Black Horse", "opening_hours:covid19": "open", "real_ale": "Black Sheep Bitter, Taylor Boltmaker + 1"}}, {"type": "node", "id": 280860171, "lat": 53.9022842, "lon": -1.0897576}, {"type": "node", "id": 283019926, "lat": 53.9544348, "lon": -1.0888224, "tags": {"addr:city": "York", "addr:postcode": "YO23 1AB", "addr:street": "Nunnery Lane", "amenity": "pub", "floor:material": "carpet", "name": "Trafalgar Bay", "opening_hours": "Mo-Sa 11:00-23:00; Su 12:00-22:30", "operator": "Samuel Smiths", "real_ale": "Sam Smiths OBB", "real_fire": "yes", "wheelchair": "yes", "wheelchair:description": "Flat entrance, appears to be flat throughout"}}, {"type": "node", "id": 283097370, "lat": 53.9578818, "lon": -1.0820693, "tags": {"amenity": "atm", "booth": "KXPlus", "check_date": "2022-01-11", "currency:GBP": "yes", "drive_through": "no", "fee": "no", "language:en": "yes", "network": "link", "note": "atm is in converted phone box with phone now on the outside", "operator": "Cashzone"}}, {"type": "node", "id": 283443907, "lat": 53.9511314, "lon": -1.085472, "tags": {"amenity": "recycling", "recycling:cans": "yes", "recycling:clothes": "yes", "recycling:glass": "yes", "recycling:paper": "yes", "recycling_type": "container"}}, {"type": "node", "id": 283443922, "lat": 53.953859, "lon": -1.0872814, "tags": {"addr:city": "York", "addr:postcode": "YO23 1AB", "addr:street": "Nunnery Lane", "amenity": "pub", "floor:material": "sticky carpet", "live_music": "yes", "name": "Victoria Vaults", "real_ale": "2 or so presumably varying beers", "wheelchair": "no", "wheelchair:description": "Largeish step at entrance"}}, {"type": "node", "id": 283443987, "lat": 53.9541584, "lon": -1.0931851, "tags": {"addr:city": "York", "addr:housenumber": "55", "addr:postcode": "YO24 1AZ", "addr:street": "Blossom Street", "amenity": "pub", "fhrs:id": "246286", "floor:material": "carpet", "internet_access": "wlan", "name": "Bay Horse", "note:opening_hours:covid19": "As of 17/5/2021", "opening_hours:covid19": "open", "real_ale": "1 beer, nothing too boring, varies", "source:addr": "FHRS Open Data", "wheelchair": "yes", "wheelchair:description": "No step at entrance, incline but flat throughout"}}, {"type": "node", "id": 283449694, "lat": 53.9531823, "lon": -1.0903358}, {"type": "node", "id": 283449697, "lat": 53.9527271, "lon": -1.0908545}, {"type": "node", "id": 283449698, "lat": 53.9522034, "lon": -1.0897085}, {"type": "node", "id": 283449699, "lat": 53.9524892, "lon": -1.0893302}, {"type": "node", "id": 283605926, "lat": 53.9560044, "lon": -1.0842147, "tags": {"addr:city": "York", "addr:housenumber": "61", "addr:postcode": "YO1 6DS", "addr:street": "Skeldergate", "amenity": "pub", "fhrs:id": "244618", "floor:material": "stone", "name": "Cock & Bottle", "real_ale": "2 local beers, may vary", "sky": "yes", "source:addr": "FHRS Open Data", "wheelchair": "no", "wheelchair:description": "Step at main entrance"}}, {"type": "node", "id": 285962500, "lat": 54.0163927, "lon": -1.0729699}, {"type": "node", "id": 286097139, "lat": 53.9544769, "lon": -1.05887, "tags": {"addr:city": "York", "addr:housenumber": "275", "addr:postcode": "YO10 3SN", "addr:street": "Melrosegate", "amenity": "pharmacy", "dispensing": "yes", "fhrs:id": "244676", "healthcare": "pharmacy", "name": "Whitworths Chemist", "opening_hours": "Mo-Fr 09:00-18:00; Sa 09:00-16:00", "phone": "+44 1904 410987", "source:addr": "FHRS Open Data"}}, {"type": "node", "id": 287605278, "lat": 53.9476866, "lon": -1.0858366}, {"type": "node", "id": 287605299, "lat": 53.9526289, "lon": -1.0838986, "tags": {"addr:city": "York", "addr:housenumber": "16", "addr:postcode": "YO23 1JH", "addr:street": "Bishopgate Street", "amenity": "pub", "name": "The Swan", "outdoor_seating": "yes", "real_ale": "4 or 5, varies", "website": "http://www.theswanyork.co.uk", "wheelchair": "no", "wheelchair:description": "Steps at entrance.  Step-free to outside seating from there."}}, {"type": "node", "id": 287608601, "lat": 53.9495538, "lon": -1.0796633, "tags": {"amenity": "bicycle_parking", "bicycle_parking": "stands", "capacity": "66", "covered": "no"}}, {"type": "node", "id": 287608756, "lat": 53.9487628, "lon": -1.0799814, "tags": {"amenity": "toilets", "check_date": "2022-05-04", "fee": "no", "wheelchair": "yes"}}, {"type": "node", "id": 289969738, "lat": 53.9328376, "lon": -1.0923574}, {"type": "node", "id": 291597160, "lat": 53.9493526, "lon": -1.0485427}, {"type": "node", "id": 292560782, "lat": 53.971898, "lon": -1.075315}, {"type": "node", "id": 292560784, "lat": 53.9713767, "lon": -1.0747248}, {"type": "node", "id": 292560785, "lat": 53.971542, "lon": -1.0743023}, {"type": "node", "id": 292560787, "lat": 53.9720633, "lon": -1.0748939}, {"type": "node", "id": 305420883, "lat": 53.9421554, "lon": -1.0573869}, {"type": "node", "id": 313181338, "lat": 53.9024978, "lon": -1.0908989}, {"type": "node", "id": 316133176, "lat": 53.961172, "lon": -1.0800405, "tags": {"addr:city": "York", "addr:housenumber": "58", "addr:postcode": "YO1 7LF", "addr:street": "Goodramgate", "amenity": "restaurant", "cuisine": "indian", "fhrs:id": "245414", "name": "Bombay Spice", "source:addr": "FHRS Open Data"}}, {"type": "node", "id": 320120614, "lat": 53.9376456, "lon": -1.1347558, "tags": {"addr:postcode": "YO24 3XN", "addr:street": "Acomb Wood Drive", "amenity": "pub", "brand": "Flaming Grill", "floor:material": "tiles", "food": "yes", "name": "Quaker Wood", "operator": "Greene King", "real_ale": "2 from GK, 3 others"}}, {"type": "node", "id": 320210304, "lat": 53.9352782, "lon": -1.1279484}, {"type": "node", "id": 320210305, "lat": 53.9369456, "lon": -1.1297414}, {"type": "node", "id": 320210306, "lat": 53.9374212, "lon": -1.1283488}, {"type": "node", "id": 320210307, "lat": 53.9354295, "lon": -1.126186}, {"type": "node", "id": 320210308, "lat": 53.9348752, "lon": -1.1275032}, {"type": "node", "id": 320211086, "lat": 53.9482338, "lon": -1.1317982}, {"type": "node", "id": 320211087, "lat": 53.948787, "lon": -1.12787}, {"type": "node", "id": 320211088, "lat": 53.947164, "lon": -1.1260849}, {"type": "node", "id": 320211089, "lat": 53.9457719, "lon": -1.1288778}, {"type": "node", "id": 344913267, "lat": 53.9492892, "lon": -1.0474344, "tags": {"addr:city": "York", "addr:housename": "Innovation Centre", "addr:postcode": "YO10 5DG", "addr:street": "Innovation Way", "amenity": "cafe", "name": "Park Central", "opening_hours": "Mo-Fr 09:00-19:00", "website": "https://www.york.ac.uk/eatatyork/opening-times/"}}, {"type": "node", "id": 346662813, "lat": 53.9474189, "lon": -1.0458278, "tags": {"note": "small foot bridge over stream"}}, {"type": "node", "id": 346965436, "lat": 53.9426521, "lon": -1.0548269}, {"type": "node", "id": 348110928, "lat": 53.9474193, "lon": -1.0450448}, {"type": "node", "id": 348111141, "lat": 53.9483454, "lon": -1.0428883}, {"type": "node", "id": 369071529, "lat": 53.9465839, "lon": -1.0512018}, {"type": "node", "id": 369071718, "lat": 53.9499029, "lon": -1.0535871, "tags": {"bicycle": "yes", "crossing": "uncontrolled", "highway": "crossing", "traffic_calming": "hump"}}, {"type": "node", "id": 369075878, "lat": 53.9494646, "lon": -1.0488633, "tags": {"amenity": "bicycle_parking", "bicycle_parking": "stands", "capacity": "20", "covered": "no", "name": "Alcuin Reception Bike Parking"}}, {"type": "node", "id": 376029437, "lat": 53.947682, "lon": -1.0562444}, {"type": "node", "id": 376042660, "lat": 53.9577187, "lon": -1.0809215, "tags": {"addr:city": "York", "addr:housenumber": "12", "addr:postcode": "YO1 9NR", "addr:street": "Coppergate", "amenity": "pub", "fhrs:id": "245585", "food": "yes", "name": "The Three Tuns", "note": "Not convinced this is still Marston's operated - claims to be a sister pub to the Blue Boar, and looks sold off from Marstons' estate", "note:opening_hours:covid19": "As of 6/6/2021", "opening_hours:covid19": "open", "operator": "Marstons", "real_ale": "Ringwood Boondoggle + 1 other", "source:addr": "FHRS Open Data", "wheelchair": "no", "wheelchair:description": "Steps at entrance"}}, {"type": "node", "id": 376042702, "lat": 53.9579993, "lon": -1.0818074, "tags": {"amenity": "bank", "atm": "yes", "brand": "Santander", "brand:wikidata": "Q5835668", "brand:wikipedia": "en:Santander Bank", "name": "Santander", "opening_hours": "Mo-Fr 09:30-16:30; Sa 09:30-16:00", "wheelchair": "yes"}}, {"type": "node", "id": 376042713, "lat": 53.9583615, "lon": -1.0808512, "tags": {"addr:city": "York", "addr:housenumber": "1-3", "addr:postcode": "YO1 8SE", "addr:street": "Parliament Street", "amenity": "bank", "atm": "yes", "branch": "York - Parliament Street", "brand": "Barclays", "brand:wikidata": "Q245343", "brand:wikipedia": "en:Barclays", "name": "Barclays", "opening_hours": "Mo,Tu 09:30-16:30; We 10:00-16:30; Th,Fr 09:30-16:30; Sa 09:30-14:30", "opening_hours:url": "https://ask.barclays.co.uk/branchfinder/", "operator": "Barclays Bank PLC", "wheelchair": "yes"}}, {"type": "node", "id": 376042718, "lat": 53.9581365, "lon": -1.081455, "tags": {"addr:city": "York", "addr:housenumber": "11", "addr:postcode": "YO1 8RZ", "addr:street": "High Ousegate", "amenity": "restaurant", "brand": "Byron", "brand:wikidata": "Q16828673", "brand:wikipedia": "en:Byron Hamburgers", "cuisine": "burger", "fhrs:id": "245553", "name": "Byron", "note:opening_hours:covid19": "As of 17/5/2021", "opening_hours:covid19": "open", "wheelchair": "limited"}}, {"type": "node", "id": 376042722, "lat": 53.958182, "lon": -1.0813098, "tags": {"addr:city": "York", "addr:housenumber": "12", "addr:postcode": "YO1 8RZ", "addr:street": "High Ousegate", "amenity": "restaurant", "branch": "York", "brand": "Nando's", "brand:wikidata": "Q3472954", "brand:wikipedia": "en:Nando's", "contact:website": "https://www.nandos.co.uk/restaurants/york", "cuisine": "chicken;portuguese", "fhrs:id": "244975", "name": "Nando's", "opening_hours": "Mo-Th 11:00-22:00; Fr-Sa 11:00-23:00; Su 11:00-22:00", "opening_hours:url": "https://www.nandos.co.uk/restaurants/york", "operator": "Nando's", "phone": "+44 1904 679 103"}}, {"type": "node", "id": 376042739, "lat": 53.9585637, "lon": -1.0802783, "tags": {"amenity": "bank", "brand": "Halifax", "brand:wikidata": "Q3310164", "brand:wikipedia": "en:Halifax (bank)", "name": "Halifax", "opening_hours": "Mo,Tu,Th,Fr 09:00-17:00; We 09:30-17:00; Sa 09:00-14:00"}}, {"type": "node", "id": 376042756, "lat": 53.9572374, "lon": -1.0845081, "tags": {"addr:city": "York", "addr:housename": "Merchant Exchange", "addr:housenumber": "1", "addr:postcode": "YO1 6DD", "addr:street": "Bridge Street", "amenity": "pub", "cuisine": "pizza", "floor:material": "wood", "food": "yes", "name": "Tank & Paddle", "note:opening_hours:covid19": "As of 17/5/2021", "old_name": "Missoula", "opening_hours:covid19": "open", "operator": "Stonegate Pub Company", "outdoor_seating": "yes", "real_ale": "4 handpumps", "wheelchair": "yes", "wheelchair:description": "Wheelchair lift to avoid steps down into main bar"}}, {"type": "node", "id": 376042910, "lat": 53.9490115, "lon": -1.0589604}, {"type": "node", "id": 376042921, "lat": 53.9494025, "lon": -1.059045}, {"type": "node", "id": 376042936, "lat": 53.9494698, "lon": -1.059042}, {"type": "node", "id": 376042946, "lat": 53.9496757, "lon": -1.0591422}, {"type": "node", "id": 376042952, "lat": 53.9498638, "lon": -1.0591856}, {"type": "node", "id": 434940412, "lat": 53.9486884, "lon": -1.0529222, "tags": {"amenity": "bicycle_parking", "bicycle_parking": "wall_loops", "capacity": "96", "covered": "yes"}}, {"type": "node", "id": 434940416, "lat": 53.964947, "lon": -1.0663473, "tags": {"addr:city": "York", "addr:housenumber": "10", "addr:postcode": "YO31 7YJ", "addr:street": "East Parade", "amenity": "pharmacy", "brand": "Boots", "brand:wikidata": "Q6123139", "brand:wikipedia": "en:Boots UK", "dispensing": "yes", "fhrs:id": "245043", "healthcare": "pharmacy", "name": "Boots", "source:addr": "FHRS Open Data"}}, {"type": "node", "id": 434940963, "lat": 53.9656355, "lon": -1.0639223, "tags": {"amenity": "atm", "fee": "no", "note": "atm is inside Co-op shop", "source:position": "local_knowledge;Bing"}}, {"type": "node", "id": 434942210, "lat": 53.949451, "lon": -1.0523682, "tags": {"access": "private", "amenity": "bicycle_parking", "covered": "yes", "note:access": "university"}}, {"type": "node", "id": 434942211, "lat": 53.9498783, "lon": -1.052926}, {"type": "node", "id": 434942373, "lat": 53.9622843, "lon": -1.059701, "tags": {"amenity": "atm", "fee": "yes"}}, {"type": "node", "id": 434942374, "lat": 53.9665568, "lon": -1.0592976, "tags": {"amenity": "atm", "fee": "yes", "note": "atm is inside costcutters shop"}}, {"type": "node", "id": 434942429, "lat": 53.9499404, "lon": -1.0584607}, {"type": "node", "id": 434943195, "lat": 53.9597429, "lon": -1.0797855, "tags": {"addr:city": "York", "addr:country": "GB", "addr:housenumber": "4", "addr:postcode": "YO1 8BP", "addr:street": "Colliergate", "amenity": "post_office", "brand": "Post Office", "brand:wikidata": "Q1783168", "brand:wikipedia": "en:Post Office Ltd", "name": "Market Place Post Office", "opening_hours": "Mo-Fr 09:00-17:30; Sa 09:00-14:30", "ref:pol_id": "8338"}}, {"type": "node", "id": 434943387, "lat": 53.9588562, "lon": -1.0809675, "tags": {"amenity": "bicycle_parking", "bicycle_parking": "stands", "capacity": "46", "covered": "no", "name": "Parliament Street (south)"}}, {"type": "node", "id": 434943988, "lat": 53.9592372, "lon": -1.0790385, "tags": {"amenity": "taxi", "shelter": "yes"}}, {"type": "node", "id": 434943989, "lat": 53.9615908, "lon": -1.0844815, "tags": {"amenity": "taxi", "shelter": "yes"}}, {"type": "node", "id": 434943990, "lat": 53.9581558, "lon": -1.0923078, "tags": {"amenity": "taxi"}}, {"type": "node", "id": 435157133, "lat": 53.9603229, "lon": -1.0704013, "tags": {"amenity": "bicycle_parking", "bicycle_parking": "stands", "capacity": "16", "covered": "no"}}, {"type": "node", "id": 435157138, "lat": 53.9602314, "lon": -1.0713182, "tags": {"amenity": "bicycle_parking", "bicycle_parking": "stands", "capacity": "20", "covered": "no"}}, {"type": "node", "id": 446334554, "lat": 53.9226996, "lon": -1.0781016, "tags": {"amenity": "atm", "indoor": "yes"}}, {"type": "node", "id": 446334556, "lat": 53.9206965, "lon": -1.07469, "tags": {"amenity": "recycling", "recycling:cans": "yes", "recycling:clothes": "yes", "recycling:glass_bottles": "yes", "recycling:magazines": "yes", "recycling:newspaper": "yes", "recycling:paper": "yes", "recycling:small_appliances": "yes", "recycling_type": "container"}}, {"type": "node", "id": 446334564, "lat": 53.9499536, "lon": -1.0594146, "tags": {"barrier": "bollard", "bicycle": "yes", "bollard": "removable", "foot": "yes"}}, {"type": "node", "id": 455206686, "lat": 53.9206328, "lon": -0.935325}, {"type": "node", "id": 457126109, "lat": 53.9983566, "lon": -1.0595086}, {"type": "node", "id": 457126120, "lat": 54.0015019, "lon": -1.057727}, {"type": "node", "id": 469890888, "lat": 53.954818, "lon": -1.0929975, "tags": {"addr:city": "York", "addr:housename": "Odeon Buildings", "addr:postcode": "YO24 1AJ", "addr:street": "Blossom Street", "amenity": "cinema", "fhrs:id": "244978", "name": "Everyman York", "old_name": "Odeon Cinema, York;Reel Cinema, York", "wikidata": "Q26550610"}}, {"type": "node", "id": 469892663, "lat": 53.9612312, "lon": -1.0835263, "tags": {"addr:city": "York", "addr:housenumber": "40", "addr:postcode": "YO1 8AS", "addr:street": "Stonegate", "amenity": "pub", "fhrs:id": "683083", "floor:material": "wood", "food": "yes", "name": "Ye Olde Starre Inne", "note:opening_hours:covid19": "As of 6/6/2021", "opening_hours:covid19": "open", "operator": "Greene King", "outdoor_seating": "yes", "real_ale": "2 from GK, 3 or so others", "source:addr": "FHRS Open Data", "wheelchair": "yes"}}, {"type": "node", "id": 498566385, "lat": 53.9881802, "lon": -1.0434965}, {"type": "node", "id": 498566419, "lat": 53.9886876, "lon": -1.0432968}, {"type": "node", "id": 503606602, "lat": 53.9495888, "lon": -1.053378}, {"type": "node", "id": 503606618, "lat": 53.9493631, "lon": -1.0525668}, {"type": "node", "id": 503606627, "lat": 53.949601, "lon": -1.0523802}, {"type": "node", "id": 503606630, "lat": 53.9497643, "lon": -1.0529682, "tags": {"entrance": "yes", "layer": "1"}}, {"type": "node", "id": 503606634, "lat": 53.9498272, "lon": -1.0531884}, {"type": "node", "id": 503644247, "lat": 53.9482134, "lon": -1.0530592, "tags": {"amenity": "bicycle_parking", "bicycle_parking": "stands", "capacity": "3", "covered": "yes"}}, {"type": "node", "id": 503644277, "lat": 53.9488949, "lon": -1.0527163, "tags": {"crossing": "no", "traffic_calming": "choked_cushion"}}, {"type": "node", "id": 503644641, "lat": 53.9490846, "lon": -1.0525301}, {"type": "node", "id": 503644652, "lat": 53.9488975, "lon": -1.0518799}, {"type": "node", "id": 503644667, "lat": 53.9489697, "lon": -1.0518228}, {"type": "node", "id": 503644677, "lat": 53.9489615, "lon": -1.0517934, "tags": {"entrance": "yes"}}, {"type": "node", "id": 503644750, "lat": 53.9489501, "lon": -1.0517504}, {"type": "node", "id": 503644771, "lat": 53.9488979, "lon": -1.0517906}, {"type": "node", "id": 503644787, "lat": 53.9488245, "lon": -1.0516177}, {"type": "node", "id": 503644807, "lat": 53.9491251, "lon": -1.0509994}, {"type": "node", "id": 503644819, "lat": 53.9495515, "lon": -1.0521618}, {"type": "node", "id": 503652689, "lat": 53.9491109, "lon": -1.0523993, "tags": {"addr:city": "York", "addr:place": "University of York", "addr:postcode": "YO10 5DD", "amenity": "cafe", "name": "Library Cafe", "opening_hours": "Mo-Fr 09:00-19:00; Sa,Su 11:00-16:00"}}, {"type": "node", "id": 503652905, "lat": 53.9484611, "lon": -1.0499812}, {"type": "node", "id": 503671284, "lat": 53.9476119, "lon": -1.0472237}, {"type": "node", "id": 503680525, "lat": 53.9472168, "lon": -1.051678}, {"type": "node", "id": 505364616, "lat": 53.9448287, "lon": -1.0447498, "tags": {"addr:city": "Heslington", "addr:postcode": "YO10 5ZB", "addr:street": "Main Street", "amenity": "bank", "atm": "yes", "brand": "NatWest", "brand:wikidata": "Q2740021", "brand:wikipedia": "en:NatWest", "name": "NatWest"}}, {"type": "node", "id": 522266052, "lat": 53.9660293, "lon": -1.0833092}, {"type": "node", "id": 522266054, "lat": 53.9659413, "lon": -1.0833802}, {"type": "node", "id": 522266056, "lat": 53.9659875, "lon": -1.0835456}, {"type": "node", "id": 522266058, "lat": 53.9660755, "lon": -1.0834745}, {"type": "node", "id": 522270197, "lat": 53.960311, "lon": -1.0797909, "tags": {"amenity": "bicycle_parking", "bicycle_parking": "stands", "capacity": "60", "covered": "no", "name": "Saint Andrewgate"}}, {"type": "node", "id": 536780052, "lat": 53.9467029, "lon": -1.0550086}, {"type": "node", "id": 536780053, "lat": 53.9466033, "lon": -1.054894}, {"type": "node", "id": 536780054, "lat": 53.9465031, "lon": -1.0548489}, {"type": "node", "id": 536780055, "lat": 53.9463306, "lon": -1.0547711}, {"type": "node", "id": 536780056, "lat": 53.9462768, "lon": -1.054529}, {"type": "node", "id": 536780059, "lat": 53.9464569, "lon": -1.05348}, {"type": "node", "id": 536780060, "lat": 53.9464054, "lon": -1.0534363}, {"type": "node", "id": 536780061, "lat": 53.9464403, "lon": -1.0532139}, {"type": "node", "id": 536780062, "lat": 53.9464647, "lon": -1.0529541}, {"type": "node", "id": 536780063, "lat": 53.9463079, "lon": -1.0518445}, {"type": "node", "id": 536780064, "lat": 53.9464065, "lon": -1.0514704}, {"type": "node", "id": 536780065, "lat": 53.9464613, "lon": -1.0513709}, {"type": "node", "id": 536780067, "lat": 53.946771, "lon": -1.0512276}, {"type": "node", "id": 536780070, "lat": 53.9466653, "lon": -1.0517447}, {"type": "node", "id": 536780071, "lat": 53.9466593, "lon": -1.0520384}, {"type": "node", "id": 536780073, "lat": 53.9469589, "lon": -1.0526217}, {"type": "node", "id": 536780075, "lat": 53.9469311, "lon": -1.0532626}, {"type": "node", "id": 536780076, "lat": 53.9471455, "lon": -1.0532516}, {"type": "node", "id": 536780077, "lat": 53.9472351, "lon": -1.0530913}, {"type": "node", "id": 536780078, "lat": 53.9472345, "lon": -1.0529245}, {"type": "node", "id": 536780079, "lat": 53.9473544, "lon": -1.0529161}, {"type": "node", "id": 536780081, "lat": 53.9474147, "lon": -1.0531194}, {"type": "node", "id": 536780082, "lat": 53.9471346, "lon": -1.0535971}, {"type": "node", "id": 536780083, "lat": 53.9475086, "lon": -1.0550179}, {"type": "node", "id": 536780084, "lat": 53.9474849, "lon": -1.0551738}, {"type": "node", "id": 536780085, "lat": 53.9476251, "lon": -1.0552001}, {"type": "node", "id": 536780087, "lat": 53.9476728, "lon": -1.0560038}, {"type": "node", "id": 536780088, "lat": 53.947429, "lon": -1.0566262}, {"type": "node", "id": 536780089, "lat": 53.9473341, "lon": -1.0567976}, {"type": "node", "id": 536780090, "lat": 53.9470238, "lon": -1.0570672}, {"type": "node", "id": 536780091, "lat": 53.9468827, "lon": -1.0571092}, {"type": "node", "id": 536780092, "lat": 53.9466786, "lon": -1.0571314}, {"type": "node", "id": 536780093, "lat": 53.9465653, "lon": -1.0571212}, {"type": "node", "id": 536780094, "lat": 53.946128, "lon": -1.057235}, {"type": "node", "id": 536780095, "lat": 53.9460109, "lon": -1.0572405}, {"type": "node", "id": 536780096, "lat": 53.9459259, "lon": -1.0572423}, {"type": "node", "id": 536780097, "lat": 53.9457718, "lon": -1.0574627}, {"type": "node", "id": 536780098, "lat": 53.9456968, "lon": -1.0586205}, {"type": "node", "id": 536780099, "lat": 53.9456847, "lon": -1.0587381}, {"type": "node", "id": 536780100, "lat": 53.9454241, "lon": -1.0587719}, {"type": "node", "id": 536780101, "lat": 53.9453473, "lon": -1.0587252}, {"type": "node", "id": 536780102, "lat": 53.9451691, "lon": -1.0586683}, {"type": "node", "id": 536780103, "lat": 53.9449968, "lon": -1.0585685}, {"type": "node", "id": 536780105, "lat": 53.944862, "lon": -1.0586467}, {"type": "node", "id": 536780106, "lat": 53.9447909, "lon": -1.058907}, {"type": "node", "id": 536780107, "lat": 53.9445032, "lon": -1.0588506}, {"type": "node", "id": 536780109, "lat": 53.9444002, "lon": -1.0587833}, {"type": "node", "id": 536780110, "lat": 53.9443178, "lon": -1.0586954}, {"type": "node", "id": 536780111, "lat": 53.9442307, "lon": -1.0584574}, {"type": "node", "id": 536780112, "lat": 53.9441355, "lon": -1.0581398}, {"type": "node", "id": 536780113, "lat": 53.9440826, "lon": -1.0578334}, {"type": "node", "id": 536780114, "lat": 53.9440248, "lon": -1.0576609}, {"type": "node", "id": 536780115, "lat": 53.9439854, "lon": -1.0574879}, {"type": "node", "id": 536780116, "lat": 53.9439054, "lon": -1.0571724}, {"type": "node", "id": 536780117, "lat": 53.943749, "lon": -1.0571479}, {"type": "node", "id": 536780118, "lat": 53.9435411, "lon": -1.057286}, {"type": "node", "id": 536780119, "lat": 53.9435292, "lon": -1.0571506}, {"type": "node", "id": 536780120, "lat": 53.9436382, "lon": -1.0570073}, {"type": "node", "id": 536780121, "lat": 53.9437792, "lon": -1.0569234}, {"type": "node", "id": 536780123, "lat": 53.9438392, "lon": -1.0569348}, {"type": "node", "id": 536780124, "lat": 53.9440079, "lon": -1.0569848}, {"type": "node", "id": 536780125, "lat": 53.9440932, "lon": -1.0570363}, {"type": "node", "id": 536780126, "lat": 53.9442614, "lon": -1.057213}, {"type": "node", "id": 536780127, "lat": 53.9444148, "lon": -1.0573584}, {"type": "node", "id": 536780128, "lat": 53.9445703, "lon": -1.0575333}, {"type": "node", "id": 536780129, "lat": 53.9447286, "lon": -1.057676}, {"type": "node", "id": 536780131, "lat": 53.944776, "lon": -1.0577527}, {"type": "node", "id": 536780132, "lat": 53.9448751, "lon": -1.0579209}, {"type": "node", "id": 536780133, "lat": 53.9450507, "lon": -1.0580543}, {"type": "node", "id": 536780134, "lat": 53.9452717, "lon": -1.0578455}, {"type": "node", "id": 536780136, "lat": 53.94537, "lon": -1.0575362}, {"type": "node", "id": 536780138, "lat": 53.9454218, "lon": -1.0572984}, {"type": "node", "id": 536780139, "lat": 53.9454512, "lon": -1.0571921}, {"type": "node", "id": 536780140, "lat": 53.9455359, "lon": -1.0570361}, {"type": "node", "id": 536780141, "lat": 53.9459138, "lon": -1.0565794}, {"type": "node", "id": 536780142, "lat": 53.9460178, "lon": -1.0565478}, {"type": "node", "id": 536780143, "lat": 53.9461509, "lon": -1.0565324}, {"type": "node", "id": 536780146, "lat": 53.9463855, "lon": -1.0565748}, {"type": "node", "id": 536780147, "lat": 53.9465916, "lon": -1.056463}, {"type": "node", "id": 536780150, "lat": 53.9467148, "lon": -1.0564398}, {"type": "node", "id": 536780151, "lat": 53.9468247, "lon": -1.0563724}, {"type": "node", "id": 536780153, "lat": 53.9469429, "lon": -1.0562434}, {"type": "node", "id": 536780155, "lat": 53.9470345, "lon": -1.0560305}, {"type": "node", "id": 536780157, "lat": 53.9471091, "lon": -1.0556073}, {"type": "node", "id": 536780158, "lat": 53.9470545, "lon": -1.055184}, {"type": "node", "id": 536780159, "lat": 53.9469339, "lon": -1.054965}, {"type": "node", "id": 536780160, "lat": 53.9467371, "lon": -1.0548733}, {"type": "node", "id": 536780161, "lat": 53.9456728, "lon": -1.0567974}, {"type": "node", "id": 538271654, "lat": 53.9468684, "lon": -1.051326}, {"type": "node", "id": 538271655, "lat": 53.9465875, "lon": -1.0510422}, {"type": "node", "id": 538271656, "lat": 53.9464309, "lon": -1.0508839}, {"type": "node", "id": 538271664, "lat": 53.9466182, "lon": -1.0511222}, {"type": "node", "id": 540704219, "lat": 53.9451154, "lon": -1.052907}, {"type": "node", "id": 540952058, "lat": 53.942857, "lon": -1.0583001}, {"type": "node", "id": 540952059, "lat": 53.9430626, "lon": -1.0585276}, {"type": "node", "id": 540952061, "lat": 53.9435987, "lon": -1.0590399}, {"type": "node", "id": 540952063, "lat": 53.9436734, "lon": -1.0590926}, {"type": "node", "id": 540952064, "lat": 53.9438581, "lon": -1.0591116}, {"type": "node", "id": 540952065, "lat": 53.944182, "lon": -1.0594464}, {"type": "node", "id": 540952066, "lat": 53.9444472, "lon": -1.0594411}, {"type": "node", "id": 540952068, "lat": 53.9446518, "lon": -1.059478}, {"type": "node", "id": 540952069, "lat": 53.9448393, "lon": -1.0594305}, {"type": "node", "id": 540952070, "lat": 53.9451684, "lon": -1.0595488}, {"type": "node", "id": 540952071, "lat": 53.9457467, "lon": -1.0596095}, {"type": "node", "id": 540952072, "lat": 53.9465065, "lon": -1.0596179}, {"type": "node", "id": 540952074, "lat": 53.9456936, "lon": -1.0596132}, {"type": "node", "id": 540952106, "lat": 53.9435204, "lon": -1.0572278}, {"type": "node", "id": 540952109, "lat": 53.9436427, "lon": -1.0572661}, {"type": "node", "id": 540952110, "lat": 53.9435861, "lon": -1.057052}, {"type": "node", "id": 540952114, "lat": 53.9420509, "lon": -1.0572295, "tags": {"barrier": "cycle_barrier", "cycle_barrier": "double"}}, {"type": "node", "id": 540952115, "lat": 53.9454117, "lon": -1.0595976}, {"type": "node", "id": 540952142, "lat": 53.9426447, "lon": -1.0580413}, {"type": "node", "id": 540952143, "lat": 53.9425827, "lon": -1.0579404}, {"type": "node", "id": 540952144, "lat": 53.9466275, "lon": -1.0510825}, {"type": "node", "id": 544166948, "lat": 53.9435312, "lon": -1.0589681}, {"type": "node", "id": 544166949, "lat": 53.9442833, "lon": -1.0594413}, {"type": "node", "id": 544166954, "lat": 53.9457425, "lon": -1.0579551}, {"type": "node", "id": 544166955, "lat": 53.9457391, "lon": -1.0575862}, {"type": "node", "id": 544166957, "lat": 53.9457524, "lon": -1.0576812}, {"type": "node", "id": 544167017, "lat": 53.9466631, "lon": -1.0596309}, {"type": "node", "id": 544167018, "lat": 53.9468155, "lon": -1.0595453}, {"type": "node", "id": 544167046, "lat": 53.9449567, "lon": -1.0594642}, {"type": "node", "id": 544167059, "lat": 53.9425286, "lon": -1.0580735}, {"type": "node", "id": 544167062, "lat": 53.9437952, "lon": -1.059546}, {"type": "node", "id": 544500805, "lat": 53.943447, "lon": -1.0522587, "tags": {"bicycle": "yes", "crossing": "marked", "crossing:island": "no", "crossing_ref": "tiger", "highway": "crossing", "tactile_paving": "yes"}}, {"type": "node", "id": 544500865, "lat": 53.9462796, "lon": -1.0543358}, {"type": "node", "id": 544500881, "lat": 53.9464337, "lon": -1.0533153}, {"type": "node", "id": 544599864, "lat": 53.9467531, "lon": -1.0512749}, {"type": "node", "id": 558801087, "lat": 53.9617609, "lon": -1.0905392, "tags": {"addr:city": "York", "addr:postcode": "YO30 7BH", "addr:street": "Marygate", "amenity": "restaurant", "disused:amenity": "pub", "name": "Roots", "old_name": "The Bay Horse"}}, {"type": "node", "id": 558801090, "lat": 53.963117, "lon": -1.0882716, "tags": {"addr:city": "York", "addr:postcode": "YO30 7BH", "addr:street": "Marygate", "amenity": "pub", "floor:material": "rough_wood", "food": "yes", "name": "Minster Inn", "note:opening_hours:covid19": "As of 8/5/2021", "opening_hours:covid19": "open", "operator": "Marstons", "outdoor_seating": "yes", "real_ale": "4 or so from Marston's, 2 or so others.", "wheelchair": "no", "wheelchair:description": "Step at entrance"}}, {"type": "node", "id": 558801092, "lat": 53.9634208, "lon": -1.0860693, "tags": {"addr:city": "York", "addr:postcode": "YO30 7BW", "addr:street": "Bootham", "amenity": "pub", "floor:material": "tiles", "name": "Bootham Tavern", "note": "Sport on TV", "note:opening_hours:covid19": "As of 8/5/2021", "opening_hours:covid19": "open", "operator": "Punch Taverns", "real_ale": "Black Sheep, Sharp's Doom Bar, Farmers Blonde", "wheelchair": "no", "wheelchair:description": "Steps at entrance"}}, {"type": "node", "id": 558801096, "lat": 53.963208, "lon": -1.0856545, "tags": {"addr:city": "York", "addr:postcode": "YO30 7BW", "addr:street": "Bootham", "amenity": "pub", "floor:material": "carpet", "food": "yes", "name": "Exhibition", "note:opening_hours:covid19": "As of 12/6/2021", "opening_hours:covid19": "open", "outdoor_seating": "yes", "real_ale": "5 or so beers", "real_fire": "yes", "wheelchair": "yes", "wheelchair:description": "Steps at main entrance but flat entrance during daylight from car park and outside drinking area at back. Signed from Gillygate."}}, {"type": "node", "id": 558807446, "lat": 53.9628764, "lon": -1.0782014, "tags": {"addr:city": "York", "addr:housenumber": "4", "addr:postcode": "YO31 7PE", "addr:street": "Monkgate", "amenity": "pub", "fhrs:id": "245781", "floor:material": "rough_wood", "food": "yes", "name": "Keystones", "note:opening_hours:covid19": "As of 17/5/2021", "opening_hours:covid19": "open", "operator": "Stonegate Pub Company", "outdoor_seating": "yes", "real_ale": "Doom Bar + 2", "source:addr": "FHRS Open Data", "wheelchair": "yes", "wheelchair:description": "Flat entrance, flat throughout"}}, {"type": "node", "id": 559267374, "lat": 53.954948, "lon": -1.069101, "tags": {"accommodation": "yes", "addr:city": "York", "addr:housenumber": "19", "addr:postcode": "YO10 3BP", "addr:street": "Lawrence Street", "amenity": "pub", "beer_garden": "yes", "camra": "yes", "fhrs:id": "245943", "floor:material": "tiles", "food": "at least pies", "internet_access": "wlan", "internet_access:fee": "no", "name": "Waggon and Horses", "note:opening_hours:covid19": "As of 19/4/2021", "opening_hours:covid19": "restricted", "operator": "Batemans", "real_ale": "4 of theirs, 2 others", "wheelchair": "yes", "wheelchair:description": "Slight lip at entrance but looks easily traversible"}}, {"type": "node", "id": 563794513, "lat": 53.9649279, "lon": -1.0646096, "tags": {"amenity": "bicycle_parking", "bicycle_parking": "stands", "capacity": "6", "covered": "no", "source": "survey;Bing"}}, {"type": "node", "id": 566346749, "lat": 53.9474647, "lon": -1.0340635}, {"type": "node", "id": 566423267, "lat": 53.9497597, "lon": -1.0293563, "tags": {"amenity": "taxi", "shelter": "yes"}}, {"type": "node", "id": 570335539, "lat": 53.9432545, "lon": -1.0470624}, {"type": "node", "id": 570335632, "lat": 53.9456588, "lon": -1.0519598}, {"type": "node", "id": 570335635, "lat": 53.9457374, "lon": -1.0516496}, {"type": "node", "id": 570335636, "lat": 53.9459252, "lon": -1.0521616}, {"type": "node", "id": 570335638, "lat": 53.9460027, "lon": -1.051855}, {"type": "node", "id": 570335640, "lat": 53.9456295, "lon": -1.0520945}, {"type": "node", "id": 570335641, "lat": 53.9458717, "lon": -1.0521219}, {"type": "node", "id": 581227083, "lat": 53.9464439, "lon": -1.0531178}, {"type": "node", "id": 581227086, "lat": 53.9464308, "lon": -1.0526801}, {"type": "node", "id": 581227088, "lat": 53.9463937, "lon": -1.0524128}, {"type": "node", "id": 581227090, "lat": 53.9463862, "lon": -1.0521954}, {"type": "node", "id": 581227101, "lat": 53.9468728, "lon": -1.0526532}, {"type": "node", "id": 581227103, "lat": 53.9468358, "lon": -1.0531062}, {"type": "node", "id": 581227105, "lat": 53.9468361, "lon": -1.0528121}, {"type": "node", "id": 581227107, "lat": 53.9464569, "lon": -1.0528314}, {"type": "node", "id": 587761676, "lat": 53.9425608, "lon": -1.0504453}, {"type": "node", "id": 587761684, "lat": 53.9453365, "lon": -1.0471612}, {"type": "node", "id": 587761698, "lat": 53.9449799, "lon": -1.0467728}, {"type": "node", "id": 587761700, "lat": 53.9450539, "lon": -1.0469331}, {"type": "node", "id": 597398771, "lat": 53.9359232, "lon": -1.1267278}, {"type": "node", "id": 642616922, "lat": 53.9612661, "lon": -1.086235, "tags": {"amenity": "bicycle_parking", "bicycle_parking": "stands", "capacity": "12", "covered": "no"}}, {"type": "node", "id": 642616926, "lat": 53.9613207, "lon": -1.0858854, "tags": {"amenity": "bicycle_parking", "bicycle_parking": "stands", "capacity": "14", "covered": "no"}}, {"type": "node", "id": 642616929, "lat": 53.9572729, "lon": -1.0779738, "tags": {"amenity": "bicycle_parking", "bicycle_parking": "stands", "capacity": "34", "check_date:capacity": "2022-06-19", "covered": "no"}}, {"type": "node", "id": 642618475, "lat": 53.9580243, "lon": -1.0795687, "tags": {"amenity": "bicycle_parking", "bicycle_parking": "stands", "capacity": "12", "covered": "no"}}, {"type": "node", "id": 643439252, "lat": 53.9209805, "lon": -1.098145, "tags": {"addr:city": "Bishopthorpe", "addr:postcode": "YO23 2RB", "addr:street": "Main Street", "amenity": "pub", "leisure": "social_club", "name": "Bishopthorpe Sports and Social Club"}}, {"type": "node", "id": 643441923, "lat": 53.9217702, "lon": -1.1001778, "tags": {"addr:city": "York", "addr:country": "GB", "addr:housenumber": "26", "addr:postcode": "YO23 2QQ", "addr:street": "Sim Balk Lane", "addr:village": "Bishopthorpe", "amenity": "post_office", "name": "Bishopthorpe Post Office", "opening_hours": "Mo-Sa 06:00-18:00; Su 06:00-12:00", "ref:pol_id": "129803", "wheelchair": "yes"}}, {"type": "node", "id": 644048725, "lat": 53.9545191, "lon": -1.0931785, "tags": {"amenity": "bicycle_parking", "bicycle_parking": "stands", "capacity": "10", "covered": "no"}}, {"type": "node", "id": 644048730, "lat": 53.9459786, "lon": -1.0546374, "tags": {"amenity": "bicycle_parking", "bicycle_parking": "stands", "capacity": "82", "covered": "yes", "operator": "University of York"}}, {"type": "node", "id": 644048739, "lat": 53.946053, "lon": -1.0544699, "tags": {"amenity": "bicycle_parking", "bicycle_parking": "stands", "capacity": "16", "covered": "yes"}}, {"type": "node", "id": 644050481, "lat": 53.9464478, "lon": -1.0739753, "tags": {"amenity": "bicycle_parking", "bicycle_parking": "stands", "capacity": "3", "covered": "no"}}, {"type": "node", "id": 656845323, "lat": 53.915505, "lon": -1.1415765, "tags": {"addr:city": "Copmanthorpe", "addr:country": "GB", "addr:housename": "The Shopping Precinct", "addr:postcode": "YO23 3GG", "addr:street": "Main Street", "addr:unit": "9", "amenity": "post_office", "name": "Post Office & Store", "opening_hours": "Mo-Fr 08:45-17:30; Sa 08:45-13:00", "ref:pol_id": "4825"}}, {"type": "node", "id": 660870863, "lat": 53.9589125, "lon": -1.0656255}, {"type": "node", "id": 660871133, "lat": 53.9624857, "lon": -1.0746429, "tags": {"amenity": "recycling", "recycling:batteries": "yes", "recycling:books": "yes", "recycling:cans": "yes", "recycling:clothes": "yes", "recycling:glass_bottles": "yes", "recycling:low_energy_bulbs": "yes", "recycling:magazines": "yes", "recycling:newspaper": "yes", "recycling:paper": "yes", "recycling:plastic_packaging": "yes", "recycling_type": "container"}}, {"type": "node", "id": 663227638, "lat": 53.9481854, "lon": -1.0799918, "tags": {"amenity": "bicycle_parking", "bicycle_parking": "stands", "capacity": "6", "covered": "no", "source": "survey"}}, {"type": "node", "id": 663227670, "lat": 53.9595651, "lon": -1.0877643, "tags": {"amenity": "bicycle_parking", "bicycle_parking": "stands", "capacity": "8", "covered": "no", "source": "survey"}}, {"type": "node", "id": 663234276, "lat": 53.9081112, "lon": -1.0875358, "tags": {"amenity": "bicycle_parking", "bicycle_parking": "front_wheel", "capacity": "10", "covered": "no", "source": "survey"}}, {"type": "node", "id": 666035662, "lat": 53.9388625, "lon": -1.0912328, "tags": {"amenity": "toilets"}}, {"type": "node", "id": 666404981, "lat": 53.9317255, "lon": -1.0924973}, {"type": "node", "id": 669911615, "lat": 53.9998483, "lon": -1.0706977}, {"type": "node", "id": 669911622, "lat": 53.9985628, "lon": -1.0678384}, {"type": "node", "id": 669911628, "lat": 53.9984522, "lon": -1.0705812}, {"type": "node", "id": 669913107, "lat": 53.9983895, "lon": -1.0715358}, {"type": "node", "id": 671353431, "lat": 53.929678, "lon": -1.1112515}, {"type": "node", "id": 672947723, "lat": 53.8896477, "lon": -1.0456131, "tags": {"accommodation": "yes", "addr:city": "Deighton", "addr:postcode": "YO19 6HA", "addr:street": "York Road", "amenity": "pub", "fhrs:id": "417913", "floor:material": "wood", "food": "yes", "internet_access": "wlan", "name": "White Swan", "outdoor_seating": "yes", "real_ale": "2 from Marston's", "source:addr": "FHRS Open Data", "wheelchair": "limited", "wheelchair:description": "May be tricky to get in front door, then flat"}}, {"type": "node", "id": 703514099, "lat": 53.9446654, "lon": -1.0588881}, {"type": "node", "id": 703514100, "lat": 53.9455701, "lon": -1.0587977}, {"type": "node", "id": 703514107, "lat": 53.9448229, "lon": -1.0587464}, {"type": "node", "id": 703514113, "lat": 53.9449519, "lon": -1.0580057}, {"type": "node", "id": 703514115, "lat": 53.9438973, "lon": -1.0569272}, {"type": "node", "id": 703514116, "lat": 53.9457458, "lon": -1.0581394}, {"type": "node", "id": 703514118, "lat": 53.9457985, "lon": -1.057298}, {"type": "node", "id": 703514120, "lat": 53.9458494, "lon": -1.0572428}, {"type": "node", "id": 703514121, "lat": 53.945781, "lon": -1.0566739}, {"type": "node", "id": 703514124, "lat": 53.9462772, "lon": -1.0547111}, {"type": "node", "id": 703514125, "lat": 53.9466742, "lon": -1.0550003}, {"type": "node", "id": 703514126, "lat": 53.9464176, "lon": -1.0548345}, {"type": "node", "id": 703514127, "lat": 53.947559, "lon": -1.0563141}, {"type": "node", "id": 703514128, "lat": 53.9471056, "lon": -1.0557383}, {"type": "node", "id": 703514129, "lat": 53.9477028, "lon": -1.0552906}, {"type": "node", "id": 703514130, "lat": 53.9477222, "lon": -1.0555019}, {"type": "node", "id": 703514157, "lat": 53.946331, "lon": -1.0540127}, {"type": "node", "id": 703514158, "lat": 53.946269, "lon": -1.0542574}, {"type": "node", "id": 703514159, "lat": 53.9468223, "lon": -1.0526586}, {"type": "node", "id": 703514160, "lat": 53.9463482, "lon": -1.0520193}, {"type": "node", "id": 703514161, "lat": 53.946818, "lon": -1.0523565}, {"type": "node", "id": 703514162, "lat": 53.9467341, "lon": -1.0522205}, {"type": "node", "id": 703514163, "lat": 53.9465187, "lon": -1.0512914}, {"type": "node", "id": 703514164, "lat": 53.9463181, "lon": -1.0516701}, {"type": "node", "id": 703514175, "lat": 53.9466775, "lon": -1.0515745}, {"type": "node", "id": 703830038, "lat": 53.9603772, "lon": -1.0873368}, {"type": "node", "id": 703830068, "lat": 53.9606701, "lon": -1.0875239}, {"type": "node", "id": 703830078, "lat": 53.960491, "lon": -1.0871984}, {"type": "node", "id": 703830099, "lat": 53.9604172, "lon": -1.0874731}, {"type": "node", "id": 703837008, "lat": 53.9613826, "lon": -1.0859426}, {"type": "node", "id": 703837014, "lat": 53.9616429, "lon": -1.0864311}, {"type": "node", "id": 703837020, "lat": 53.9614557, "lon": -1.0867701}, {"type": "node", "id": 703837023, "lat": 53.9617149, "lon": -1.0861595}, {"type": "node", "id": 703837025, "lat": 53.9615972, "lon": -1.0865509}, {"type": "node", "id": 703837026, "lat": 53.9612835, "lon": -1.0861972}, {"type": "node", "id": 703837029, "lat": 53.9612282, "lon": -1.0863268}, {"type": "node", "id": 703837032, "lat": 53.9615416, "lon": -1.0866443}, {"type": "node", "id": 703837033, "lat": 53.9613367, "lon": -1.0860757}, {"type": "node", "id": 703837034, "lat": 53.9617189, "lon": -1.0862555}, {"type": "node", "id": 703837037, "lat": 53.9614901, "lon": -1.0867184}, {"type": "node", "id": 705211905, "lat": 53.9650168, "lon": -1.0645678, "tags": {"amenity": "toilets", "fee": "no", "female": "yes", "fixme": "does it still exist? all doors closed at 2022-07-09_13-16", "male": "yes", "wheelchair": "yes"}}, {"type": "node", "id": 706725937, "lat": 53.9149294, "lon": -1.1363981}, {"type": "node", "id": 706725959, "lat": 53.9209337, "lon": -1.0996708}, {"type": "node", "id": 706725992, "lat": 53.9148793, "lon": -1.1371072}, {"type": "node", "id": 706726009, "lat": 53.9210128, "lon": -1.0998725}, {"type": "node", "id": 706726015, "lat": 53.9150225, "lon": -1.1369473}, {"type": "node", "id": 706726076, "lat": 53.9150157, "lon": -1.1366208}, {"type": "node", "id": 706726078, "lat": 53.9209118, "lon": -1.0998333}, {"type": "node", "id": 706726093, "lat": 53.9149533, "lon": -1.1366904}, {"type": "node", "id": 706726116, "lat": 53.9147307, "lon": -1.1367235}, {"type": "node", "id": 706726125, "lat": 53.9210346, "lon": -1.09971}, {"type": "node", "id": 716860782, "lat": 53.962376, "lon": -1.0872268}, {"type": "node", "id": 716860797, "lat": 53.9622437, "lon": -1.086219}, {"type": "node", "id": 716860816, "lat": 53.9621152, "lon": -1.087624}, {"type": "node", "id": 716860822, "lat": 53.9616415, "lon": -1.0869851}, {"type": "node", "id": 716860843, "lat": 53.9617957, "lon": -1.0871919}, {"type": "node", "id": 716860846, "lat": 53.9621702, "lon": -1.087699}, {"type": "node", "id": 716860883, "lat": 53.9620259, "lon": -1.0875031}, {"type": "node", "id": 716860886, "lat": 53.9620511, "lon": -1.0864444}, {"type": "node", "id": 716860895, "lat": 53.9620717, "lon": -1.0864748}, {"type": "node", "id": 717585309, "lat": 53.9627452, "lon": -1.0875338}, {"type": "node", "id": 717638094, "lat": 53.9624424, "lon": -1.0870977}, {"type": "node", "id": 726530896, "lat": 53.9591645, "lon": -1.0791224, "tags": {"amenity": "bicycle_parking", "bicycle_parking": "stands", "capacity": "12", "covered": "no", "name": "Saint Saviourgate"}}, {"type": "node", "id": 726530898, "lat": 53.9591201, "lon": -1.0793422, "tags": {"amenity": "bicycle_parking", "bicycle_parking": "stands", "capacity": "24", "covered": "no"}}, {"type": "node", "id": 732346751, "lat": 53.964472, "lon": -1.0875202}, {"type": "node", "id": 732346762, "lat": 53.9549933, "lon": -1.0902945, "tags": {"addr:city": "York", "addr:postcode": "YO23 1JG", "addr:street": "Nunnery Lane", "amenity": "school", "denomination": "catholic", "name": "All Saints RC School (Lower School)", "religion": "christian"}}, {"type": "node", "id": 732348205, "lat": 53.9584897, "lon": -1.0802913, "tags": {"amenity": "atm", "check_date": "2022-01-05", "currency:GBP": "yes", "drive_through": "no", "fee": "no", "language:en": "yes", "operator": "Halifax"}}, {"type": "node", "id": 732435134, "lat": 53.9559936, "lon": -1.0878168}, {"type": "node", "id": 732435142, "lat": 53.9561577, "lon": -1.0883667}, {"type": "node", "id": 732435152, "lat": 53.9563685, "lon": -1.0880882}, {"type": "node", "id": 732435169, "lat": 53.9561898, "lon": -1.087759}, {"type": "node", "id": 732435207, "lat": 53.9561313, "lon": -1.0876582}, {"type": "node", "id": 732435223, "lat": 53.9560259, "lon": -1.0874644}, {"type": "node", "id": 732435339, "lat": 53.955869, "lon": -1.0885439}, {"type": "node", "id": 732435354, "lat": 53.9559479, "lon": -1.0886958}, {"type": "node", "id": 732435369, "lat": 53.9561272, "lon": -1.0884268}, {"type": "node", "id": 732435378, "lat": 53.9560484, "lon": -1.0882749}, {"type": "node", "id": 732534648, "lat": 53.9544016, "lon": -1.0912175}, {"type": "node", "id": 732534669, "lat": 53.9544441, "lon": -1.0913029}, {"type": "node", "id": 732534675, "lat": 53.9546229, "lon": -1.0916995}, {"type": "node", "id": 732534745, "lat": 53.9550139, "lon": -1.090899}, {"type": "node", "id": 732534751, "lat": 53.9552327, "lon": -1.0906102}, {"type": "node", "id": 732628210, "lat": 53.9617146, "lon": -1.0852034}, {"type": "node", "id": 732628211, "lat": 53.9617201, "lon": -1.0854006}, {"type": "node", "id": 732628212, "lat": 53.9618381, "lon": -1.0854348}, {"type": "node", "id": 732628213, "lat": 53.9620704, "lon": -1.085445}, {"type": "node", "id": 732628214, "lat": 53.9621795, "lon": -1.0849546}, {"type": "node", "id": 732628215, "lat": 53.9621698, "lon": -1.0848581}, {"type": "node", "id": 732628217, "lat": 53.9619763, "lon": -1.0848959}, {"type": "node", "id": 732628218, "lat": 53.9615794, "lon": -1.08491}, {"type": "node", "id": 732726419, "lat": 53.959979, "lon": -1.0816118}, {"type": "node", "id": 732735202, "lat": 53.9582941, "lon": -1.0838211, "tags": {"addr:city": "York", "addr:country": "GB", "addr:housenumber": "39-41", "addr:postcode": "YO1 9QL", "addr:street": "Coney Street", "amenity": "post_office", "brand": "Post Office", "brand:wikidata": "Q1783168", "brand:wikipedia": "en:Post Office Ltd", "indoor": "yes", "name": "York Post Office", "old_addr:postcode": "YO1 8DA;YO1 8AA", "old_name": "Lendal", "opening_hours": "Mo-Sa 09:00-17:30; Su 11:00-15:00", "operator": "WHSmith", "ref:pol_id": "149160", "wheelchair": "yes"}}, {"type": "node", "id": 732740920, "lat": 53.9596214, "lon": -1.0812448}, {"type": "node", "id": 732740925, "lat": 53.959742, "lon": -1.0813884}, {"type": "node", "id": 732740928, "lat": 53.9598832, "lon": -1.0810698}, {"type": "node", "id": 732740932, "lat": 53.9597853, "lon": -1.0808901}, {"type": "node", "id": 732999333, "lat": 53.9607801, "lon": -1.0759631}, {"type": "node", "id": 732999338, "lat": 53.9609482, "lon": -1.076107}, {"type": "node", "id": 732999343, "lat": 53.9609835, "lon": -1.0759881}, {"type": "node", "id": 732999349, "lat": 53.9608153, "lon": -1.0758442}, {"type": "node", "id": 734927438, "lat": 53.9633815, "lon": -1.0824069}, {"type": "node", "id": 734927440, "lat": 53.9634798, "lon": -1.0821764}, {"type": "node", "id": 734927443, "lat": 53.9637109, "lon": -1.0824629}, {"type": "node", "id": 734927445, "lat": 53.963613, "lon": -1.0826924}, {"type": "node", "id": 735240654, "lat": 53.9563299, "lon": -1.0732934, "tags": {"source": "OS StreetView"}}, {"type": "node", "id": 735274467, "lat": 53.9537777, "lon": -1.0747004}, {"type": "node", "id": 735274491, "lat": 53.9531874, "lon": -1.0747608}, {"type": "node", "id": 735274502, "lat": 53.9531507, "lon": -1.0744846}, {"type": "node", "id": 735274510, "lat": 53.9530087, "lon": -1.0744814}, {"type": "node", "id": 735274519, "lat": 53.9530108, "lon": -1.0740225}, {"type": "node", "id": 735274529, "lat": 53.9531413, "lon": -1.0740223}, {"type": "node", "id": 735274541, "lat": 53.9531871, "lon": -1.0737893}, {"type": "node", "id": 735274552, "lat": 53.9535957, "lon": -1.0737564}, {"type": "node", "id": 735274608, "lat": 53.9536973, "lon": -1.0737563}, {"type": "node", "id": 735274624, "lat": 53.9538383, "lon": -1.0737606}, {"type": "node", "id": 735274636, "lat": 53.9538367, "lon": -1.0739676}, {"type": "node", "id": 735274645, "lat": 53.9536927, "lon": -1.0739679}, {"type": "node", "id": 735274657, "lat": 53.9536252, "lon": -1.0740276}, {"type": "node", "id": 735274674, "lat": 53.9536546, "lon": -1.0741434}, {"type": "node", "id": 735274685, "lat": 53.953646, "lon": -1.0743831}, {"type": "node", "id": 735274696, "lat": 53.9536012, "lon": -1.0745003}, {"type": "node", "id": 735274711, "lat": 53.9537051, "lon": -1.074616}, {"type": "node", "id": 735296818, "lat": 53.9566562, "lon": -1.076792}, {"type": "node", "id": 735296820, "lat": 53.9566914, "lon": -1.0768328}, {"type": "node", "id": 735296823, "lat": 53.9567646, "lon": -1.0766505}, {"type": "node", "id": 735296825, "lat": 53.9567295, "lon": -1.0766097}, {"type": "node", "id": 735368855, "lat": 53.9601228, "lon": -1.0842177, "tags": {"addr:city": "York", "addr:housenumber": "6-8", "addr:postcode": "YO1 8QP", "addr:street": "St Helen's Square", "amenity": "cafe", "fhrs:id": "245951", "name": "Betty's Caf\u00e9 Tea Rooms", "operator": "Betty's", "source:addr": "FHRS Open Data", "website": "https://www.bettys.co.uk/", "wheelchair": "yes"}}, {"type": "node", "id": 735374078, "lat": 53.9601466, "lon": -1.0847855, "tags": {"addr:city": "York", "addr:housenumber": "1", "addr:postcode": "YO1 8QN", "addr:street": "St Helen's Square", "alt_name": "Harkers Sausage and Chop House", "amenity": "pub", "fhrs:id": "245694", "floor:material": "tiles", "food": "yes", "name": "Harkers", "note:opening_hours:covid19": "As of 6/6/2021", "opening_hours:covid19": "open", "operator": "Nicholson's", "real_ale": "7 or so", "source:addr": "FHRS Open Data", "wheelchair": "no"}}, {"type": "node", "id": 735378800, "lat": 53.9597142, "lon": -1.0831686, "tags": {"addr:city": "York", "addr:housenumber": "16", "addr:postcode": "YO1 8RJ", "addr:street": "Davygate", "amenity": "cafe", "brand": "Caff\u00e8 Nero", "brand:wikidata": "Q675808", "brand:wikipedia": "en:Caff\u00e8 Nero", "cuisine": "coffee_shop", "fhrs:id": "244933", "internet_access": "wlan", "name": "Caff\u00e8 Nero", "takeaway": "yes", "wheelchair": "no"}}, {"type": "node", "id": 735378802, "lat": 53.9592211, "lon": -1.0820193, "tags": {"addr:city": "York", "addr:housenumber": "17-18", "addr:postcode": "YO1 8SG", "addr:street": "Parliament Street", "amenity": "bank", "atm": "yes", "brand": "Nationwide", "brand:wikidata": "Q846735", "brand:wikipedia": "en:Nationwide Building Society", "contact:website": "https://locations.nationwidebranches.co.uk/york/17/18-parliament-street", "name": "Nationwide", "opening_hours": "Mo,Tu,Th,Fr 09:00-17:00; We 09:30-17:00; Sa 09:00-15:00", "wheelchair": "yes"}}, {"type": "node", "id": 735378804, "lat": 53.9588506, "lon": -1.0814978, "tags": {"addr:city": "York", "addr:housenumber": "13", "addr:postcode": "YO1 8SG", "addr:street": "Parliament Street", "amenity": "bank", "atm": "yes", "brand": "HSBC UK", "brand:wikidata": "Q64767453", "contact:website": "https://www.hsbc.co.uk/branch-list/york-parliament-st/", "drive_through": "no", "name": "HSBC UK", "opening_hours": "Mo-Fr 09:30-16:30; Sa 09:30-13:00", "operator": "HSBC Bank plc", "wheelchair": "yes"}}, {"type": "node", "id": 735468624, "lat": 53.9575034, "lon": -1.0864745, "tags": {"addr:city": "York", "addr:housenumber": "24", "addr:postcode": "YO1 6LP", "addr:street": "George Hudson Street", "amenity": "restaurant", "cuisine": "turkish", "fhrs:id": "245227", "name": "Kapadokya", "source:addr": "FHRS Open Data"}}, {"type": "node", "id": 735492978, "lat": 53.9585174, "lon": -1.0798951, "tags": {"addr:city": "York", "addr:housenumber": "10", "addr:postcode": "YO1 9UP", "addr:street": "Pavement", "amenity": "restaurant", "brand": "Pizza Hut", "brand:wikidata": "Q191615", "brand:wikipedia": "en:Pizza Hut", "cuisine": "pizza", "fhrs:id": "245126", "name": "Pizza Hut", "opening_hours": "Mo-Th 11:00-21:00; Fr,Sa 11:00-22:00; Su 11:30-20:00", "source:addr": "FHRS Open Data"}}, {"type": "node", "id": 735492981, "lat": 53.9583816, "lon": -1.0800128, "tags": {"addr:city": "York", "addr:country": "GB", "addr:housenumber": "2", "addr:postcode": "YO1 9LB", "addr:street": "Pavement", "amenity": "bank", "atm": "yes", "brand": "Lloyds Bank", "brand:wikidata": "Q1152847", "brand:wikipedia": "en:Lloyds Bank", "contact:website": "https://branches.lloydsbank.com/york/2-pavement", "name": "Lloyds Bank", "opening_hours": "Mo,Tu,Th,Fr 09:00-17:00; We 09:30-17:00; Sa 09:00-16:00"}}, {"type": "node", "id": 735504558, "lat": 53.9589172, "lon": -1.0790176, "tags": {"addr:city": "York", "addr:housenumber": "5", "addr:postcode": "YO1 9TA", "addr:street": "Fossgate", "amenity": "pub", "fhrs:id": "244967", "floor:material": "slate", "food": "yes", "name": "The Terrace", "note:opening_hours:covid19": "As of 8/5/2021", "opening_hours:covid19": "open", "real_ale": "Taylor Landlord, Leeds IPA, Doom Bar", "sky": "yes", "wheelchair": "no", "wheelchair:description": "Step at entrance"}}, {"type": "node", "id": 735516913, "lat": 53.9594041, "lon": -1.0800222, "tags": {"addr:city": "York", "addr:housenumber": "13-14", "addr:postcode": "YO1 7LZ", "addr:street": "Shambles", "amenity": "cafe", "cuisine": "tea_shop", "fhrs:id": "245141", "name": "Earl Grey Tea Rooms", "source:addr": "FHRS Open Data", "wheelchair": "limited"}}, {"type": "node", "id": 735530149, "lat": 53.9599851, "lon": -1.0797584, "tags": {"addr:city": "York", "addr:housenumber": "28", "addr:postcode": "YO1 8BN", "addr:street": "Colliergate", "amenity": "cafe", "fhrs:id": "245753", "name": "Chloes of York", "source:addr": "FHRS Open Data", "wheelchair": "no"}}, {"type": "node", "id": 735942269, "lat": 53.957302, "lon": -1.0810048, "tags": {"addr:city": "York", "addr:housenumber": "11A", "addr:postcode": "YO1 9RN", "addr:street": "Castlegate", "amenity": "cafe", "fhrs:id": "246319", "name": "Castle Tea Rooms"}}, {"type": "node", "id": 735945109, "lat": 53.956899, "lon": -1.080544, "tags": {"addr:city": "York", "addr:housenumber": "28", "addr:postcode": "YO1 9RP", "addr:street": "Castlegate", "amenity": "restaurant", "cuisine": "french", "fhrs:id": "245982", "name": "Rustique"}}, {"type": "node", "id": 735945112, "lat": 53.9565771, "lon": -1.0802816, "tags": {"addr:city": "York", "addr:postcode": "YO1 9WD", "addr:street": "Tower Street", "amenity": "restaurant", "name": "Applejack's Sports Bar & Diner"}}, {"type": "node", "id": 735953210, "lat": 53.9571909, "lon": -1.0811846, "tags": {"amenity": "bicycle_parking", "bicycle_parking": "stands", "capacity": "6", "covered": "no"}}, {"type": "node", "id": 735953228, "lat": 53.9556314, "lon": -1.0809841, "tags": {"addr:city": "York", "addr:housenumber": "10", "addr:postcode": "YO1 9SA", "addr:street": "Tower Street", "amenity": "restaurant", "fhrs:id": "244941", "name": "The Olive Tree", "source:addr": "FHRS Open Data"}}, {"type": "node", "id": 735953235, "lat": 53.9555022, "lon": -1.080861, "tags": {"addr:city": "York", "addr:postcode": "YO1 9SA", "addr:street": "Tower Street", "amenity": "restaurant", "cuisine": "indian", "name": "29 states \u2013 The Indian Kitchen", "old_name": "Jade Garden"}}, {"type": "node", "id": 735953239, "lat": 53.9553996, "lon": -1.0807524, "tags": {"addr:city": "York", "addr:housenumber": "14", "addr:postcode": "YO1 9SA", "addr:street": "Tower Street", "amenity": "cafe", "name": "Tower Vue Cafe"}}, {"type": "node", "id": 735958221, "lat": 53.9622746, "lon": -1.0790548, "tags": {"addr:city": "York", "addr:housenumber": "18", "addr:postcode": "YO1 7LG", "addr:street": "Goodramgate", "amenity": "pub", "fhrs:id": "245764", "floor:material": "lino", "food": "yes", "name": "The Royal Oak", "note:opening_hours:covid19": "As of 17/5/2021", "opening_hours:covid19": "open", "operator": "Punch Taverns", "real_ale": "4 beers, most local", "source:addr": "FHRS Open Data", "wheelchair": "no", "wheelchair:description": "Small step at entrance"}}, {"type": "node", "id": 735969323, "lat": 53.9635315, "lon": -1.0632996}, {"type": "node", "id": 735969324, "lat": 53.9631084, "lon": -1.0632878, "tags": {"barrier": "gate", "school": "entrance"}}, {"type": "node", "id": 735969325, "lat": 53.9630776, "lon": -1.0632826, "tags": {"barrier": "gate", "school": "entrance"}}, {"type": "node", "id": 735969326, "lat": 53.9627507, "lon": -1.063281}, {"type": "node", "id": 735969327, "lat": 53.9627889, "lon": -1.0610725}, {"type": "node", "id": 735969328, "lat": 53.9634648, "lon": -1.0611554}, {"type": "node", "id": 735982637, "lat": 53.9597941, "lon": -1.0817525, "tags": {"addr:city": "York", "addr:housenumber": "11", "addr:postcode": "YO1 8RN", "addr:street": "St Sampsons Square", "amenity": "pub", "fhrs:id": "246013", "floor:material": "lino", "name": "Three Cranes", "note:opening_hours:covid19": "As of 17/5/2021", "opening_hours:covid19": "open", "operator": "Punch Taverns", "real_ale": "3 beers, may vary", "source:addr": "FHRS Open Data", "wheelchair": "no", "wheelchair:description": "Small step at entrance"}}, {"type": "node", "id": 735984713, "lat": 53.9700722, "lon": -1.0825867}, {"type": "node", "id": 735984716, "lat": 53.9705254, "lon": -1.0823567}, {"type": "node", "id": 735984717, "lat": 53.9706682, "lon": -1.0822678}, {"type": "node", "id": 735984719, "lat": 53.970916, "lon": -1.0823905}, {"type": "node", "id": 736147613, "lat": 53.9575915, "lon": -1.0779421, "tags": {"addr:city": "York", "addr:country": "GB", "addr:housename": "Fossbridge House", "addr:postcode": "YO1 9SY", "addr:street": "Walmgate", "amenity": "restaurant", "brand": "Loch Fyne", "brand:wikidata": "Q6664920", "brand:wikipedia": "en:Loch Fyne Restaurants", "check_date:opening_hours:covid19": "2020-09-14", "contact:website": "https://www.lochfyneseafoodandgrill.co.uk/locations/york", "cuisine": "seafood", "fhrs:id": "246210", "name": "Loch Fyne", "note:opening_hours:covid19": "As of 23/5/2021", "opening_hours:covid19": "open", "source:addr": "FHRS Open Data"}}, {"type": "node", "id": 736148435, "lat": 53.9579071, "lon": -1.0779924, "tags": {"addr:city": "York", "addr:country": "GB", "addr:housenumber": "34", "addr:postcode": "YO1 9TA", "addr:street": "Fossgate", "amenity": "restaurant", "cuisine": "polish", "fhrs:id": "246400", "fhrs:local_authority_id": "19732", "name": "Blue Barbakan", "old_name:-2016": "The Blue Bicycle", "phone": "+44 1904 672 474", "start_date": "2020", "website": "https://www.bluebarbakan.co.uk/"}}, {"type": "node", "id": 736228668, "lat": 53.9654504, "lon": -1.0822478}, {"type": "node", "id": 736228672, "lat": 53.9651456, "lon": -1.0825568}, {"type": "node", "id": 736228677, "lat": 53.9654426, "lon": -1.0829776}, {"type": "node", "id": 736228682, "lat": 53.9656765, "lon": -1.0829663}, {"type": "node", "id": 736228735, "lat": 53.9652527, "lon": -1.0825917}, {"type": "node", "id": 736228882, "lat": 53.9644817, "lon": -1.0800186}, {"type": "node", "id": 736229182, "lat": 53.9653483, "lon": -1.0817721}, {"type": "node", "id": 736229196, "lat": 53.965238, "lon": -1.0815996}, {"type": "node", "id": 736229212, "lat": 53.9653483, "lon": -1.0814239}, {"type": "node", "id": 736229218, "lat": 53.9651407, "lon": -1.0810744}, {"type": "node", "id": 736229226, "lat": 53.9653995, "lon": -1.0807762}, {"type": "node", "id": 736229240, "lat": 53.965591, "lon": -1.0811007}, {"type": "node", "id": 736229249, "lat": 53.9657967, "lon": -1.080782}, {"type": "node", "id": 736229257, "lat": 53.965915, "lon": -1.0811818}, {"type": "node", "id": 736229263, "lat": 53.9657206, "lon": -1.0815363}, {"type": "node", "id": 736229269, "lat": 53.9655865, "lon": -1.081291}, {"type": "node", "id": 736229324, "lat": 53.9650882, "lon": -1.0824892}, {"type": "node", "id": 736229331, "lat": 53.9648371, "lon": -1.0814458, "tags": {"barrier": "bollard"}}, {"type": "node", "id": 736229334, "lat": 53.9642118, "lon": -1.0803191}, {"type": "node", "id": 736229337, "lat": 53.9656552, "lon": -1.0786414}, {"type": "node", "id": 736229350, "lat": 53.9665667, "lon": -1.0811481},